[{"ipv4":"111.102.105.93/24","country":"Indonesia","city":"Krajan Jamprong","provider":"Beatty and Sons","latitude":-6.9604,"longitude":111.6157},
{"ipv4":"255.166.103.119/22","country":"Dominica","city":"Castle Bruce","provider":"O'Kon LLC","latitude":15.4418966,"longitude":-61.2583352},
{"ipv4":"45.220.216.195/18","country":"Greenland","city":"Paamiut","provider":"Hane, Legros and Waters","latitude":61.9919,"longitude":-49.6572},
{"ipv4":"218.202.177.151/24","country":"Montenegro","city":"Pljevlja","provider":"Rowe, Kautzer and Sawayn","latitude":43.3582371,"longitude":19.3512591},
{"ipv4":"23.18.226.27/28","country":"China","city":"Shajia’ao","provider":"Barrows LLC","latitude":28.90388,"longitude":121.310873},
{"ipv4":"250.194.108.249/24","country":"Croatia","city":"Andrijaševci","provider":"Schoen, Hickle and Frami","latitude":45.218223,"longitude":18.7359718},
{"ipv4":"54.9.47.164/24","country":"Philippines","city":"San Miguel","provider":"Rippin, Wyman and Smith","latitude":8.955271,"longitude":126.009711},
{"ipv4":"169.16.36.105/19","country":"Colombia","city":"Cabuyaro","provider":"Torp and Sons","latitude":4.2443418,"longitude":-72.9460566},
{"ipv4":"7.141.189.102/28","country":"Uruguay","city":"Cerro Colorado","provider":"Paucek-Rogahn","latitude":-33.8603461,"longitude":-55.5441311},
{"ipv4":"211.51.74.181/25","country":"Thailand","city":"Na Di","provider":"Harvey Inc","latitude":14.2030447,"longitude":101.7751709},
{"ipv4":"188.36.64.226/24","country":"Greenland","city":"Upernavik","provider":"Price-Lynch","latitude":72.79,"longitude":-56.130556},
{"ipv4":"85.57.82.170/29","country":"Philippines","city":"Balitoc","provider":"Gislason-MacGyver","latitude":14.3958755,"longitude":121.0191099},
{"ipv4":"241.136.199.163/24","country":"China","city":"Xinglong","provider":"Waelchi-Rutherford","latitude":40.417358,"longitude":117.500558},
{"ipv4":"120.155.54.164/28","country":"Brazil","city":"Jandaia do Sul","provider":"Fadel-Hoppe","latitude":-23.6012232,"longitude":-51.6392076},
{"ipv4":"41.201.146.34/20","country":"China","city":"Gangbian","provider":"Wisoky, Dare and Jakubowski","latitude":28.460473,"longitude":117.690148},
{"ipv4":"234.39.78.219/28","country":"Iraq","city":"An Nāşirīyah","provider":"Glover Inc","latitude":31.0452345,"longitude":46.2665911},
{"ipv4":"4.14.3.86/16","country":"Madagascar","city":"Maintirano","provider":"Vandervort, Hettinger and Larkin","latitude":-18.0524283,"longitude":44.0341961},
{"ipv4":"159.207.113.103/28","country":"Chile","city":"Yumbel","provider":"Hirthe-Berge","latitude":-37.0833,"longitude":-72.5667},
{"ipv4":"178.172.199.16/24","country":"Sweden","city":"Halmstad","provider":"Langworth Inc","latitude":56.6695343,"longitude":12.7347961},
{"ipv4":"172.203.178.118/20","country":"Argentina","city":"Laboulaye","provider":"Renner and Sons","latitude":-31.4834373,"longitude":-64.2145666},
{"ipv4":"138.254.143.95/28","country":"Greece","city":"Vári","provider":"Nicolas, Turcotte and Gorczany","latitude":37.8334351,"longitude":23.802873},
{"ipv4":"147.5.188.45/24","country":"Indonesia","city":"Banjar Sandinggianyar","provider":"Gerhold-McClure","latitude":-8.4837797,"longitude":115.279613},
{"ipv4":"123.153.141.184/24","country":"South Korea","city":"Tongjin","provider":"Beatty, Grant and Blick","latitude":37.6917333,"longitude":126.597295},
{"ipv4":"141.92.49.210/27","country":"Indonesia","city":"Nularan","provider":"Lesch, Conroy and Zboncak","latitude":-9.4954726,"longitude":125.0265256},
{"ipv4":"214.162.73.205/24","country":"Russia","city":"Novouzensk","provider":"Krajcik, Gislason and Walker","latitude":50.4438122,"longitude":48.1450932},
{"ipv4":"149.200.233.168/16","country":"Indonesia","city":"Toupopu","provider":"Johnson, Ritchie and Ratke","latitude":-9.7028,"longitude":119.4717},
{"ipv4":"222.82.75.222/24","country":"Poland","city":"Borzęta","provider":"Rempel-Bogan","latitude":49.86228,"longitude":19.97924},
{"ipv4":"180.118.174.67/24","country":"Argentina","city":"Anguil","provider":"Ferry Group","latitude":-36.5337379,"longitude":-64.0106073},
{"ipv4":"127.127.86.9/30","country":"Colombia","city":"Baranoa","provider":"O'Reilly, Ebert and Kautzer","latitude":10.796589,"longitude":-74.915036},
{"ipv4":"200.242.29.23/24","country":"Finland","city":"Hankasalmi","provider":"Bogisich LLC","latitude":62.3658212,"longitude":26.4532856},
{"ipv4":"212.99.185.24/23","country":"Iran","city":"Eslāmābād","provider":"Swaniawski Inc","latitude":38.1304493,"longitude":47.9437099},
{"ipv4":"104.71.29.203/24","country":"Portugal","city":"Santa Marta de Penaguião","provider":"Nicolas, Kuphal and Johns","latitude":41.2101265,"longitude":-7.7869527},
{"ipv4":"204.73.157.231/24","country":"China","city":"Luyang","provider":"Tillman-Collier","latitude":31.878735,"longitude":117.26467},
{"ipv4":"219.38.56.200/30","country":"Ireland","city":"Gorey","provider":"Aufderhar Inc","latitude":52.665267,"longitude":-6.308522},
{"ipv4":"28.12.33.1/28","country":"Ethiopia","city":"Jīma","provider":"Weimann, Yost and Emmerich","latitude":7.6738908,"longitude":36.8357927},
{"ipv4":"86.21.123.235/28","country":"Russia","city":"Loukhi","provider":"Goldner-Stark","latitude":66.0733463,"longitude":33.0544476},
{"ipv4":"24.164.76.67/19","country":"Russia","city":"Bol’shoy Karay","provider":"Skiles-Kilback","latitude":56.654278,"longitude":90.5782439},
{"ipv4":"65.253.17.201/28","country":"Greece","city":"Rodotópi","provider":"Lakin Inc","latitude":39.7083252,"longitude":20.7237136},
{"ipv4":"96.48.138.41/24","country":"Indonesia","city":"Mlawe","provider":"Cassin, Bailey and Ortiz","latitude":-7.051,"longitude":112.4232},
{"ipv4":"211.181.207.192/17","country":"Portugal","city":"Aveiro","provider":"Mohr, Satterfield and Padberg","latitude":40.6394384,"longitude":-8.6380475},
{"ipv4":"20.237.176.61/24","country":"Russia","city":"Tugulym","provider":"Nolan LLC","latitude":57.056336,"longitude":64.6282995},
{"ipv4":"241.121.134.17/25","country":"Indonesia","city":"Ciriri","provider":"Howe Group","latitude":-0.8808728,"longitude":100.5858786},
{"ipv4":"45.237.197.201/23","country":"Malawi","city":"Machinga","provider":"Gutkowski, Cole and VonRueden","latitude":-14.9407263,"longitude":35.4781926},
{"ipv4":"152.64.127.37/24","country":"Russia","city":"Stan-Bekhtemir","provider":"Cremin Group","latitude":52.60665,"longitude":85.62619},
{"ipv4":"1.24.215.99/24","country":"Venezuela","city":"Rubio","provider":"Williamson and Sons","latitude":7.6988579,"longitude":-72.3607108},
{"ipv4":"240.212.39.78/22","country":"Indonesia","city":"Tangga","provider":"Jast, Stark and Volkman","latitude":-8.6508134,"longitude":118.7023068},
{"ipv4":"94.246.55.14/28","country":"Denmark","city":"København","provider":"Boehm LLC","latitude":55.6649287,"longitude":12.5504728},
{"ipv4":"236.247.117.237/24","country":"Thailand","city":"Nong Bua Daeng","provider":"Flatley, Rolfson and Hoppe","latitude":16.080957,"longitude":101.8037812},
{"ipv4":"250.131.110.234/24","country":"China","city":"Yangchun","provider":"Herzog, Krajcik and Kshlerin","latitude":22.170437,"longitude":111.791539},
{"ipv4":"6.130.169.226/28","country":"Russia","city":"Kiyevskoye","provider":"Barrows-Trantow","latitude":43.7071168,"longitude":44.643763},
{"ipv4":"21.154.21.1/26","country":"Indonesia","city":"Lancang","provider":"Romaguera-Sauer","latitude":5.1970659,"longitude":96.5076426},
{"ipv4":"11.166.62.78/29","country":"Czech Republic","city":"Krouna","provider":"Rippin-Doyle","latitude":49.7761881,"longitude":16.0289677},
{"ipv4":"200.225.227.212/26","country":"China","city":"Daijiaba","provider":"Runolfsdottir Inc","latitude":33.010035,"longitude":106.179842},
{"ipv4":"228.103.17.222/24","country":"France","city":"Istres","provider":"Wolf, Gulgowski and Volkman","latitude":43.4988397,"longitude":4.9789041},
{"ipv4":"157.123.163.234/20","country":"Indonesia","city":"Tebanah","provider":"Koss, Jast and Gottlieb","latitude":-6.9295423,"longitude":113.2066909},
{"ipv4":"97.56.89.223/24","country":"Russia","city":"Maloye Verevo","provider":"Batz-Weber","latitude":59.615642,"longitude":30.1696437},
{"ipv4":"137.15.114.167/21","country":"Poland","city":"Szubin","provider":"Powlowski Group","latitude":53.00942,"longitude":17.73989},
{"ipv4":"143.58.246.33/31","country":"Indonesia","city":"Bungursari","provider":"Bayer-Cremin","latitude":-6.4510633,"longitude":107.4676861},
{"ipv4":"100.116.115.202/24","country":"Indonesia","city":"Pakenjeng","provider":"Ortiz, Hamill and Durgan","latitude":-7.3737257,"longitude":107.7103291},
{"ipv4":"191.222.130.60/21","country":"Ukraine","city":"Novohrad-Volyns’kyy","provider":"Schmeler, Bauch and Cronin","latitude":50.5860203,"longitude":27.6363775},
{"ipv4":"11.150.85.19/28","country":"Brazil","city":"Lagoa Santa","provider":"Tremblay, Abshire and Boehm","latitude":-19.5803242,"longitude":-43.9503713},
{"ipv4":"153.80.14.104/28","country":"Portugal","city":"Serra","provider":"Stokes, Ward and Runolfsdottir","latitude":41.0534668,"longitude":-8.3490278},
{"ipv4":"167.233.177.28/28","country":"United States","city":"South Bend","provider":"Ondricka LLC","latitude":41.6919638,"longitude":-86.3754398},
{"ipv4":"1.110.103.69/24","country":"China","city":"Guantang","provider":"Gerhold Group","latitude":24.304673,"longitude":113.136459},
{"ipv4":"191.62.68.75/24","country":"Brazil","city":"Nova Cruz","provider":"Rutherford Inc","latitude":-6.4472391,"longitude":-35.4124355},
{"ipv4":"142.241.231.67/28","country":"Poland","city":"Stary Sącz","provider":"Tillman, Parisian and Terry","latitude":49.564452,"longitude":20.6327686},
{"ipv4":"149.112.201.51/28","country":"United States","city":"Springfield","provider":"O'Conner, Jaskolski and Jacobi","latitude":39.7761758,"longitude":-89.6051502},
{"ipv4":"103.56.253.173/24","country":"Bosnia and Herzegovina","city":"Potoci","provider":"Walker, Stokes and Schaden","latitude":44.4123524,"longitude":16.5814309},
{"ipv4":"174.2.157.139/26","country":"China","city":"Jiading","provider":"Mohr and Sons","latitude":31.375869,"longitude":121.265374},
{"ipv4":"30.233.152.151/26","country":"Togo","city":"Sotouboua","provider":"Baumbach Group","latitude":8.5653801,"longitude":0.9772874},
{"ipv4":"172.13.253.157/24","country":"Thailand","city":"Wiset Chaichan","provider":"Wolf-Weimann","latitude":16.8164157,"longitude":100.270206},
{"ipv4":"162.191.236.25/24","country":"Portugal","city":"Pataias","provider":"Gleason, Shields and Rau","latitude":39.6832131,"longitude":-9.0018424},
{"ipv4":"245.137.54.13/19","country":"Ukraine","city":"Bibrka","provider":"King Group","latitude":49.6376889,"longitude":24.2948622},
{"ipv4":"49.232.80.185/24","country":"China","city":"Hongjia","provider":"Vandervort-Marquardt","latitude":36.689919,"longitude":118.4807442},
{"ipv4":"169.57.217.192/24","country":"France","city":"Wissembourg","provider":"Labadie, Skiles and Metz","latitude":49.031645,"longitude":7.950014},
{"ipv4":"11.131.200.62/22","country":"Canada","city":"Magog","provider":"Crona, Berge and Hand","latitude":45.2879358,"longitude":-72.1547927},
{"ipv4":"56.78.228.73/30","country":"Indonesia","city":"Tengger","provider":"Toy, Ernser and Welch","latitude":-7.221562,"longitude":111.759598},
{"ipv4":"36.143.147.219/24","country":"Yemen","city":"Al Ḩarf","provider":"Russel and Sons","latitude":16.3762123,"longitude":44.0865232},
{"ipv4":"221.252.2.9/24","country":"Philippines","city":"Loreto","provider":"Swaniawski, Keeling and Franecki","latitude":14.657758,"longitude":120.9888316},
{"ipv4":"217.109.178.188/21","country":"China","city":"Songshan","provider":"Corkery, Kirlin and Lueilwitz","latitude":34.519664,"longitude":113.004052},
{"ipv4":"159.64.33.160/23","country":"French Guiana","city":"Kourou","provider":"Schroeder, Mosciski and Feest","latitude":5.1677581,"longitude":-52.6449937},
{"ipv4":"139.47.96.221/28","country":"China","city":"Saxin","provider":"Effertz-Crooks","latitude":31.4153241,"longitude":121.2288833},
{"ipv4":"34.175.167.36/28","country":"Indonesia","city":"Sumberejo","provider":"Adams-Franecki","latitude":-7.2030729,"longitude":112.0237903},
{"ipv4":"71.193.244.209/28","country":"Colombia","city":"Sincelejo","provider":"Sawayn-Schulist","latitude":9.2718747,"longitude":-75.4636031},
{"ipv4":"23.105.237.161/18","country":"Iran","city":"Kelīshād va Sūdarjān","provider":"Kohler, Abshire and Lang","latitude":32.5518151,"longitude":51.5307789},
{"ipv4":"126.234.63.164/16","country":"Russia","city":"Uvarovo","provider":"Collier, Homenick and Morar","latitude":52.0016128,"longitude":42.344717},
{"ipv4":"133.207.217.115/24","country":"Ireland","city":"Castlebellingham","provider":"Ziemann, Bradtke and Mitchell","latitude":53.8996586,"longitude":-6.391149},
{"ipv4":"123.160.207.55/28","country":"Russia","city":"Tungor","provider":"Koch LLC","latitude":53.3914918,"longitude":142.9582995},
{"ipv4":"37.232.155.120/22","country":"Costa Rica","city":"San Rafael","provider":"Ferry Inc","latitude":9.9436507,"longitude":-84.0166951},
{"ipv4":"9.220.102.164/24","country":"Cyprus","city":"Kíti","provider":"Dietrich, Corkery and Crooks","latitude":34.855441,"longitude":33.5784007},
{"ipv4":"43.228.110.16/23","country":"Thailand","city":"Ban Bueng","provider":"Rowe-Berge","latitude":13.3200851,"longitude":101.1015323},
{"ipv4":"232.40.80.137/24","country":"Iran","city":"Garmeh","provider":"Lueilwitz-Schaefer","latitude":33.5282289,"longitude":55.0396912},
{"ipv4":"144.43.239.13/24","country":"Indonesia","city":"Mamasa","provider":"Wiza, Lueilwitz and Collier","latitude":-2.9118209,"longitude":119.3250347},
{"ipv4":"47.190.185.35/24","country":"Sweden","city":"Borlänge","provider":"Durgan-Senger","latitude":60.4872057,"longitude":15.4102793},
{"ipv4":"110.61.188.130/30","country":"Mexico","city":"La Esperanza","provider":"Von, Greenholt and Strosin","latitude":23.7173024,"longitude":-99.185752},
{"ipv4":"122.26.239.43/28","country":"Norway","city":"Elverum","provider":"Walter-Schowalter","latitude":60.8818611,"longitude":11.5610075},
{"ipv4":"36.4.107.185/28","country":"Brazil","city":"Conceição do Jacuípe","provider":"Leuschke, Zulauf and Renner","latitude":-12.417342,"longitude":-38.7158702},
{"ipv4":"117.35.106.175/24","country":"Greece","city":"Pigí","provider":"Schaden, Shields and Yundt","latitude":35.3606523,"longitude":24.5719605},
{"ipv4":"31.8.134.116/23","country":"Peru","city":"Palcamayo","provider":"Hickle, Fay and Koss","latitude":-11.2957096,"longitude":-75.7727595},
{"ipv4":"232.231.171.40/28","country":"Colombia","city":"Junín","provider":"Marvin-Runolfsdottir","latitude":4.791028,"longitude":-73.663027},
{"ipv4":"8.82.124.150/24","country":"Croatia","city":"Baška Voda","provider":"Kuvalis LLC","latitude":43.3572645,"longitude":16.9520477},
{"ipv4":"183.144.99.243/28","country":"Georgia","city":"Abastumani","provider":"Gerhold-Upton","latitude":41.7555687,"longitude":42.8315218},
{"ipv4":"215.226.242.57/28","country":"China","city":"Ganquan","provider":"MacGyver, Spencer and Simonis","latitude":36.276526,"longitude":109.351019},
{"ipv4":"133.128.186.107/24","country":"Japan","city":"Akita","provider":"Wisoky, Watsica and Bogan","latitude":35.3179014,"longitude":136.9037455},
{"ipv4":"3.94.149.19/28","country":"Russia","city":"Nebug","provider":"Walter, Rohan and Gibson","latitude":44.164709,"longitude":38.9989611},
{"ipv4":"153.121.48.157/24","country":"Chile","city":"Hacienda La Calera","provider":"Dietrich Inc","latitude":-32.78333,"longitude":-71.21667},
{"ipv4":"239.20.130.232/28","country":"Russia","city":"Volzhskiy","provider":"Sawayn Group","latitude":48.7736083,"longitude":44.8250459},
{"ipv4":"43.194.95.147/24","country":"Sweden","city":"Askersund","provider":"Labadie Inc","latitude":58.8781209,"longitude":14.9037055},
{"ipv4":"156.2.134.1/30","country":"Peru","city":"Lampa","provider":"Schneider-Cremin","latitude":-15.3612378,"longitude":-70.3628516},
{"ipv4":"42.170.25.143/24","country":"Philippines","city":"Ibaan","provider":"Purdy, Bogan and Yost","latitude":13.816877,"longitude":121.131952},
{"ipv4":"111.28.153.116/24","country":"Ukraine","city":"Makiyivka","provider":"Barrows, Roob and Bogan","latitude":48.0459557,"longitude":37.9666901},
{"ipv4":"240.204.85.47/28","country":"Nigeria","city":"Ndeaboh","provider":"McCullough, Zulauf and Maggio","latitude":6.0312787,"longitude":7.5626411},
{"ipv4":"125.55.43.236/16","country":"China","city":"Doushan","provider":"Schimmel, Corkery and Hauck","latitude":22.060541,"longitude":112.837815},
{"ipv4":"69.59.119.209/24","country":"Russia","city":"Biryulëvo Zapadnoye","provider":"Keeling Inc","latitude":55.590397,"longitude":37.6278499},
{"ipv4":"70.113.213.148/24","country":"Colombia","city":"Canalete","provider":"Beier, Will and Marvin","latitude":8.788161,"longitude":-76.240381},
{"ipv4":"23.93.175.241/22","country":"Pakistan","city":"Alīābad","provider":"Powlowski-Kshlerin","latitude":28.1732341,"longitude":68.0179319},
{"ipv4":"230.207.17.81/24","country":"Indonesia","city":"Sukamaju","provider":"Wilderman and Sons","latitude":-6.4185424,"longitude":106.8502879},
{"ipv4":"6.144.109.51/24","country":"Russia","city":"Sofrino","provider":"Rodriguez and Sons","latitude":55.7443873,"longitude":37.6001786},
{"ipv4":"205.249.224.163/20","country":"Indonesia","city":"Sarkanjut","provider":"Stanton, Metz and MacGyver","latitude":-7.1081786,"longitude":107.9399848},
{"ipv4":"228.248.1.97/28","country":"Brazil","city":"Muriaé","provider":"Kreiger-Wiegand","latitude":-21.1291403,"longitude":-42.3702252},
{"ipv4":"49.191.101.81/28","country":"Sweden","city":"Karlskoga","provider":"Dickinson Inc","latitude":59.326934,"longitude":14.524558},
{"ipv4":"215.239.126.72/28","country":"Greece","city":"Géfyra","provider":"Bailey, Jenkins and Watsica","latitude":40.7325414,"longitude":22.6920826},
{"ipv4":"86.205.28.192/24","country":"China","city":"Yukuriawat","provider":"Mante Group","latitude":39.08335,"longitude":77.56662},
{"ipv4":"249.144.123.153/20","country":"Canada","city":"Berthierville","provider":"Baumbach Inc","latitude":46.08336,"longitude":-73.18245},
{"ipv4":"238.20.194.154/28","country":"China","city":"Suyang","provider":"Renner and Sons","latitude":32.890479,"longitude":115.814504},
{"ipv4":"13.168.114.165/27","country":"Thailand","city":"Mueang Suang","provider":"Witting-Kuphal","latitude":15.8206635,"longitude":103.7636752},
{"ipv4":"209.38.148.86/28","country":"China","city":"Lingkou","provider":"Tillman and Sons","latitude":26.82808,"longitude":114.835777},
{"ipv4":"74.169.166.222/24","country":"Canada","city":"Cabano","provider":"Kautzer-Jast","latitude":47.68065,"longitude":-68.8781},
{"ipv4":"207.195.191.234/28","country":"Indonesia","city":"Bentar","provider":"Mante, Kunde and Roob","latitude":-7.1501862,"longitude":108.8105899},
{"ipv4":"221.31.68.45/23","country":"Malta","city":"Dingli","provider":"Feeney-Kub","latitude":35.86139,"longitude":14.38222},
{"ipv4":"204.36.233.176/24","country":"China","city":"Sanhe","provider":"Weimann, Kunze and Bechtelar","latitude":39.982718,"longitude":117.078294},
{"ipv4":"7.210.42.195/30","country":"France","city":"Sarreguemines","provider":"Hessel, Kunde and Lakin","latitude":49.1073208,"longitude":7.0685103},
{"ipv4":"202.164.98.247/29","country":"Philippines","city":"Inicbulan","provider":"Goyette-Marvin","latitude":13.8206796,"longitude":120.9814426},
{"ipv4":"193.184.226.101/30","country":"China","city":"Yanqian","provider":"Monahan, Casper and Roberts","latitude":23.0706415,"longitude":112.4852219},
{"ipv4":"1.151.200.163/28","country":"Costa Rica","city":"Turrialba","provider":"Parker Inc","latitude":9.9046941,"longitude":-83.6858571},
{"ipv4":"89.61.192.193/22","country":"Malawi","city":"Dedza","provider":"Reinger, Wintheiser and Fahey","latitude":-14.3816618,"longitude":34.3254842},
{"ipv4":"121.69.221.202/24","country":"Poland","city":"Chrzanów","provider":"Walker LLC","latitude":50.404585,"longitude":20.9948039},
{"ipv4":"123.18.94.2/28","country":"Japan","city":"Tawaramoto","provider":"Walter-Mraz","latitude":40.6086938,"longitude":140.4880538},
{"ipv4":"1.127.153.184/25","country":"China","city":"Qiaotou","provider":"McCullough Inc","latitude":28.168408,"longitude":120.482198},
{"ipv4":"57.179.240.147/27","country":"Uzbekistan","city":"Gurlan","provider":"Bahringer-Rice","latitude":41.8563033,"longitude":60.398557},
{"ipv4":"71.195.170.230/28","country":"Portugal","city":"Chaves","provider":"Simonis, Auer and Fadel","latitude":41.741781,"longitude":-7.4731648},
{"ipv4":"51.108.207.67/23","country":"Indonesia","city":"Jatisari","provider":"Armstrong, Littel and Harvey","latitude":-6.3385652,"longitude":106.9447146},
{"ipv4":"23.29.125.136/24","country":"Poland","city":"Wąsosz","provider":"Senger, Schowalter and Schuster","latitude":51.5623852,"longitude":16.69165},
{"ipv4":"44.107.116.51/24","country":"Brazil","city":"Itabaiana","provider":"Kessler-Ruecker","latitude":-10.6872332,"longitude":-37.4329352},
{"ipv4":"223.235.30.227/24","country":"China","city":"Zhamog","provider":"Schuppe, Deckow and Haag","latitude":29.849977,"longitude":95.775494},
{"ipv4":"16.6.224.208/23","country":"Indonesia","city":"Pesisir","provider":"Olson Group","latitude":-7.7454234,"longitude":113.1709572},
{"ipv4":"10.130.202.247/21","country":"Ukraine","city":"Kodra","provider":"Frami, Rodriguez and Walsh","latitude":50.5602346,"longitude":29.5970439},
{"ipv4":"162.114.228.153/22","country":"China","city":"Luoping","provider":"Klocko, Welch and Rice","latitude":24.884626,"longitude":104.308675},
{"ipv4":"66.1.178.52/27","country":"Nigeria","city":"Mberubu","provider":"Heaney-Hilll","latitude":6.3324473,"longitude":7.605638},
{"ipv4":"65.199.163.102/28","country":"Peru","city":"Tapacocha","provider":"Herman, Schuppe and Becker","latitude":-11.9796093,"longitude":-77.0698281},
{"ipv4":"71.195.177.105/16","country":"Portugal","city":"Quintela","provider":"Okuneva Group","latitude":41.3940988,"longitude":-8.0276048},
{"ipv4":"28.237.109.130/24","country":"Mexico","city":"Morelos","provider":"Huels-West","latitude":19.7899891,"longitude":-99.6684882},
{"ipv4":"239.226.227.32/16","country":"Philippines","city":"Silae","provider":"Wolf, White and Deckow","latitude":8.1592413,"longitude":125.2824211},
{"ipv4":"90.187.86.48/27","country":"Sweden","city":"Danderyd","provider":"Turcotte-Kutch","latitude":59.4043888,"longitude":18.0280746},
{"ipv4":"192.123.194.194/24","country":"Indonesia","city":"Turirejo","provider":"Stokes Inc","latitude":-6.8348685,"longitude":110.6735079},
{"ipv4":"85.118.110.79/22","country":"Peru","city":"Yaurisque","provider":"Trantow-Stracke","latitude":-13.67337,"longitude":-71.925346},
{"ipv4":"148.93.224.91/24","country":"Ukraine","city":"Preobrazhenka","provider":"Dooley LLC","latitude":46.4799835,"longitude":30.7319718},
{"ipv4":"94.22.210.22/28","country":"Portugal","city":"Devesa","provider":"McCullough, Kuhn and Luettgen","latitude":41.3575049,"longitude":-8.3482785},
{"ipv4":"11.30.227.78/31","country":"Russia","city":"Kuvandyk","provider":"Walter-Jakubowski","latitude":51.5258667,"longitude":57.3241614},
{"ipv4":"86.51.38.224/28","country":"China","city":"Jixing","provider":"O'Conner Inc","latitude":30.753924,"longitude":120.758543},
{"ipv4":"89.186.35.175/31","country":"Canada","city":"Grande Cache","provider":"O'Keefe and Sons","latitude":53.88335,"longitude":-119.13585},
{"ipv4":"32.197.145.23/21","country":"China","city":"Taiping","provider":"Prosacco, Zemlak and Will","latitude":53.3004898,"longitude":-6.2634596},
{"ipv4":"255.90.78.31/24","country":"Poland","city":"Strzelce","provider":"Pagac-Emmerich","latitude":52.3140368,"longitude":19.4070384},
{"ipv4":"135.42.225.226/24","country":"Russia","city":"Nal’chik","provider":"Von, Hand and Schulist","latitude":43.5661719,"longitude":43.4895256},
{"ipv4":"113.110.81.245/30","country":"China","city":"Shahezi","provider":"Sanford, Smith and Rowe","latitude":44.306097,"longitude":86.080602},
{"ipv4":"40.152.89.141/26","country":"China","city":"Meilisi","provider":"Cummerata Inc","latitude":47.309537,"longitude":123.7529099},
{"ipv4":"175.26.245.70/24","country":"Indonesia","city":"Kadukandel","provider":"Hessel-Zboncak","latitude":-6.4334,"longitude":105.9098},
{"ipv4":"168.226.243.160/22","country":"Indonesia","city":"Delok","provider":"Feil, Huel and Fadel","latitude":-6.4024844,"longitude":106.7942405},
{"ipv4":"125.245.224.133/28","country":"Indonesia","city":"Sukorambi","provider":"Gulgowski-Wolff","latitude":-8.1189113,"longitude":113.6621236},
{"ipv4":"251.124.72.36/24","country":"Indonesia","city":"Rejowinangun","provider":"Aufderhar, Thiel and Nikolaus","latitude":-7.8111719,"longitude":110.3979074},
{"ipv4":"15.13.95.96/24","country":"China","city":"Hengxi","provider":"Reilly-Herzog","latitude":36.628305,"longitude":101.765843},
{"ipv4":"203.244.64.62/24","country":"Cameroon","city":"Bamusso","provider":"Spencer and Sons","latitude":4.4308445,"longitude":8.941094},
{"ipv4":"70.144.131.174/24","country":"United States","city":"Cincinnati","provider":"Corkery, Hilll and Larson","latitude":39.1335733,"longitude":-84.4356468},
{"ipv4":"240.86.4.18/24","country":"Indonesia","city":"Alasmalang","provider":"Armstrong-Kirlin","latitude":-8.3187176,"longitude":114.2524236},
{"ipv4":"4.185.212.224/16","country":"Indonesia","city":"Cogreg Wetan","provider":"Bauch, Mohr and Feil","latitude":-6.4610391,"longitude":106.6989632},
{"ipv4":"94.98.104.176/30","country":"Indonesia","city":"Puncakmanis","provider":"Hansen and Sons","latitude":-6.81146,"longitude":106.92569},
{"ipv4":"59.18.154.137/24","country":"Canada","city":"Aylmer","provider":"Gottlieb-Hackett","latitude":42.7729381,"longitude":-80.9828842},
{"ipv4":"220.207.106.137/25","country":"Portugal","city":"Telheira","provider":"Mann and Sons","latitude":41.3263905,"longitude":-8.2207204},
{"ipv4":"184.238.100.157/29","country":"South Africa","city":"Pofadder","provider":"McClure, Hessel and Brakus","latitude":-28.7523,"longitude":19.295048},
{"ipv4":"109.215.4.189/24","country":"Brazil","city":"Matias Olímpio","provider":"Zemlak-Hills","latitude":-3.6988282,"longitude":-42.5901672},
{"ipv4":"154.140.102.63/24","country":"Burkina Faso","city":"Manga","provider":"Zulauf-Mante","latitude":11.66503,"longitude":-1.0634024},
{"ipv4":"169.198.68.104/24","country":"Sweden","city":"Gamleby","provider":"Hoeger Group","latitude":57.9268439,"longitude":16.5004384},
{"ipv4":"146.55.183.120/24","country":"Hungary","city":"Debrecen","provider":"Ward, D'Amore and Pfannerstill","latitude":47.5341107,"longitude":21.6379372},
{"ipv4":"238.233.167.83/24","country":"Trinidad and Tobago","city":"Debe","provider":"Connelly and Sons","latitude":10.1986882,"longitude":-61.4377107},
{"ipv4":"162.151.91.175/28","country":"Philippines","city":"Malangabang","provider":"Wehner, Ryan and Emmerich","latitude":11.2367,"longitude":123.2062},
{"ipv4":"48.147.57.172/28","country":"Tunisia","city":"Qal‘at al Andalus","provider":"Bergstrom LLC","latitude":37.066667,"longitude":10.116667},
{"ipv4":"232.166.20.234/24","country":"Indonesia","city":"Tanggung","provider":"Roob-Fay","latitude":-8.0716019,"longitude":112.1758089},
{"ipv4":"36.219.22.194/17","country":"Indonesia","city":"Secang Barat","provider":"Waelchi, Howell and Yundt","latitude":-7.823074,"longitude":110.1576731},
{"ipv4":"11.212.26.119/18","country":"Portugal","city":"Além","provider":"Schumm-Ullrich","latitude":41.1690927,"longitude":-8.3593779},
{"ipv4":"195.186.153.136/21","country":"Brazil","city":"Itaberaí","provider":"Casper-Crist","latitude":-16.0222492,"longitude":-49.8004866},
{"ipv4":"157.216.42.196/24","country":"Taiwan","city":"Miaoli","provider":"Bauch-Hermiston","latitude":24.560159,"longitude":120.8214265},
{"ipv4":"200.1.143.157/24","country":"Kenya","city":"Bungoma","provider":"Bechtelar Group","latitude":0.5695252,"longitude":34.5583766},
{"ipv4":"245.97.127.101/24","country":"Indonesia","city":"Balauring","provider":"Stroman-Murray","latitude":-8.2864014,"longitude":123.7014716},
{"ipv4":"4.48.224.247/19","country":"Tunisia","city":"Ben Arous","provider":"MacGyver Inc","latitude":36.7435003,"longitude":10.2319757},
{"ipv4":"248.77.223.179/30","country":"Russia","city":"Divnomorskoye","provider":"Schuster and Sons","latitude":44.5047212,"longitude":38.1300171},
{"ipv4":"119.100.88.154/27","country":"Portugal","city":"Bairro dos Marinheiros","provider":"Ferry, Rolfson and Larkin","latitude":38.6002724,"longitude":-9.0119332},
{"ipv4":"65.175.81.51/31","country":"Russia","city":"Semikarakorsk","provider":"Shields-Hoppe","latitude":47.5155739,"longitude":40.8140313},
{"ipv4":"173.227.175.236/28","country":"Brazil","city":"Lagoa Seca","provider":"Harris, Schamberger and Block","latitude":-7.1580805,"longitude":-35.8549426},
{"ipv4":"5.167.182.46/16","country":"China","city":"Dongxi","provider":"Willms-Kautzer","latitude":35.580662,"longitude":104.626282},
{"ipv4":"144.159.60.68/23","country":"Sweden","city":"Ronneby","provider":"Sawayn, Douglas and Brekke","latitude":56.196934,"longitude":15.290983},
{"ipv4":"218.92.199.82/16","country":"Indonesia","city":"Dengok","provider":"Bashirian, Schoen and Schmitt","latitude":-7.9499222,"longitude":110.5304842},
{"ipv4":"92.61.10.183/21","country":"United States","city":"Waco","provider":"Huels, McCullough and McDermott","latitude":31.1393795,"longitude":-97.8047404},
{"ipv4":"164.117.11.237/19","country":"Pakistan","city":"Kālābāgh","provider":"Reilly, Mann and Grady","latitude":32.9005808,"longitude":71.4599651},
{"ipv4":"192.238.200.163/27","country":"Morocco","city":"Oujda","provider":"Marks, Schinner and Ankunding","latitude":34.681962,"longitude":-1.900155},
{"ipv4":"253.93.150.195/31","country":"Poland","city":"Kostrzyn nad Odrą","provider":"Satterfield-Murazik","latitude":52.6235765,"longitude":14.6349097},
{"ipv4":"208.182.212.218/28","country":"China","city":"Pumaqangtang","provider":"Fisher LLC","latitude":28.599774,"longitude":90.204816},
{"ipv4":"35.197.222.245/24","country":"Ukraine","city":"Kamennyye Potoki","provider":"Runte, Berge and Purdy","latitude":48.97974,"longitude":33.52638},
{"ipv4":"208.217.55.40/28","country":"Senegal","city":"Rosso","provider":"Purdy-Murazik","latitude":16.5163413,"longitude":-15.802612},
{"ipv4":"181.145.199.61/18","country":"China","city":"Xihuachi","provider":"Christiansen-Pfannerstill","latitude":35.8024758,"longitude":108.0101409},
{"ipv4":"246.179.209.85/29","country":"China","city":"Heqian","provider":"Swift Group","latitude":31.411847,"longitude":108.472893},
{"ipv4":"69.134.186.255/22","country":"Portugal","city":"Ermelo","provider":"Bode-MacGyver","latitude":41.3592129,"longitude":-7.8886758},
{"ipv4":"13.44.205.217/24","country":"Philippines","city":"Buenavista","provider":"Huel and Sons","latitude":8.972681,"longitude":125.408732},
{"ipv4":"75.100.192.194/27","country":"Portugal","city":"Carcavelos","provider":"Ward, Hartmann and Price","latitude":41.3410168,"longitude":-8.3169303},
{"ipv4":"3.236.193.29/21","country":"Sweden","city":"Uppsala","provider":"O'Keefe-Parisian","latitude":59.8646264,"longitude":17.6912342},
{"ipv4":"120.103.12.203/28","country":"Honduras","city":"El Llano","provider":"Reichel-Walsh","latitude":15.1539332,"longitude":-87.8721602},
{"ipv4":"229.237.150.9/28","country":"Japan","city":"Chino","provider":"Abshire Inc","latitude":35.089251,"longitude":135.8827528},
{"ipv4":"75.95.94.234/28","country":"China","city":"Xigebi","provider":"Bayer Inc","latitude":40.324768,"longitude":97.521763},
{"ipv4":"133.48.213.215/28","country":"Thailand","city":"Khon San","provider":"Rogahn, Beer and Ziemann","latitude":16.6078107,"longitude":101.9291015},
{"ipv4":"52.175.151.181/24","country":"Macedonia","city":"Poroj","provider":"Franecki, Kreiger and McClure","latitude":42.0288112,"longitude":20.9969544},
{"ipv4":"17.195.142.64/31","country":"Poland","city":"Zagórnik","provider":"Davis-Treutel","latitude":49.8151822,"longitude":19.3771749},
{"ipv4":"47.94.174.61/24","country":"China","city":"Jinggongqiao","provider":"Roberts Inc","latitude":29.744095,"longitude":117.217373},
{"ipv4":"216.136.61.53/28","country":"Saudi Arabia","city":"As Sulayyil","provider":"Rolfson LLC","latitude":20.4668679,"longitude":45.5629394},
{"ipv4":"79.99.16.228/26","country":"China","city":"Ulan Us","provider":"Parker-Hermann","latitude":44.30672,"longitude":85.871393},
{"ipv4":"74.130.11.82/27","country":"Russia","city":"Chashnikovo","provider":"Torphy and Sons","latitude":56.0297222,"longitude":37.1691666},
{"ipv4":"93.219.176.75/28","country":"Ecuador","city":"Babahoyo","provider":"McGlynn, Kuhlman and Schiller","latitude":-1.801926,"longitude":-79.5346459},
{"ipv4":"170.154.17.193/21","country":"China","city":"Liudu","provider":"Lindgren-Cassin","latitude":23.07555,"longitude":112.007814},
{"ipv4":"10.15.25.83/24","country":"Philippines","city":"Guisguis","provider":"Schinner Inc","latitude":13.9008751,"longitude":121.486094},
{"ipv4":"128.222.242.9/20","country":"France","city":"Mitry-Mory","provider":"Oberbrunner, Nader and Bosco","latitude":48.9802395,"longitude":2.612562},
{"ipv4":"187.50.76.80/19","country":"China","city":"Pianling","provider":"Leuschke, Schroeder and Walter","latitude":40.479895,"longitude":123.170569},
{"ipv4":"28.73.247.57/28","country":"Portugal","city":"Cruz","provider":"Langosh-Hahn","latitude":41.4783577,"longitude":-8.5364865},
{"ipv4":"94.153.27.180/30","country":"Indonesia","city":"Banjar Beratan","provider":"Connelly-Anderson","latitude":-8.6060882,"longitude":116.1114976},
{"ipv4":"174.73.160.122/28","country":"Armenia","city":"Bartsrashen","provider":"Bashirian-Torphy","latitude":40.5931238,"longitude":43.7385844},
{"ipv4":"115.240.223.176/24","country":"China","city":"Baoli","provider":"Mraz and Sons","latitude":31.982984,"longitude":120.246992},
{"ipv4":"230.202.152.65/17","country":"Vietnam","city":"Ninh Giang","provider":"Shields-Luettgen","latitude":20.7491091,"longitude":106.3699271},
{"ipv4":"105.117.53.133/26","country":"Germany","city":"Frankfurt am Main","provider":"Gislason-Strosin","latitude":50.041381,"longitude":8.5800547},
{"ipv4":"151.77.67.58/28","country":"China","city":"Heqing","provider":"Kuhn Group","latitude":26.560231,"longitude":100.176498},
{"ipv4":"249.205.0.56/24","country":"Eritrea","city":"Asmara","provider":"Toy-Schuppe","latitude":15.3228767,"longitude":38.9250517},
{"ipv4":"137.139.237.99/30","country":"Ukraine","city":"Pnikut","provider":"Toy LLC","latitude":49.7115204,"longitude":23.1314414},
{"ipv4":"13.177.191.155/24","country":"Indonesia","city":"Magersari","provider":"Thompson Inc","latitude":-7.466569,"longitude":112.4500076},
{"ipv4":"69.85.136.190/27","country":"Albania","city":"Fushë-Muhurr","provider":"Rippin, Hayes and Schiller","latitude":41.682758,"longitude":20.32996},
{"ipv4":"147.25.10.0/24","country":"Russia","city":"Ivanishchi","provider":"Hodkiewicz-Schinner","latitude":55.7754263,"longitude":40.4248943},
{"ipv4":"139.254.222.48/17","country":"Mexico","city":"Magisterial","provider":"Koelpin-Armstrong","latitude":21.443179,"longitude":-102.5724749},
{"ipv4":"0.27.57.21/30","country":"China","city":"Zhujiachang","provider":"Thiel LLC","latitude":38.9421248,"longitude":121.4849128},
{"ipv4":"243.158.87.234/24","country":"China","city":"Zhongcun","provider":"Tremblay, Welch and Stracke","latitude":26.207631,"longitude":113.767529},
{"ipv4":"65.130.65.85/24","country":"Peru","city":"Huambo","provider":"Predovic-Steuber","latitude":-15.73144,"longitude":-72.1082897},
{"ipv4":"137.107.218.49/31","country":"Russia","city":"Torzhok","provider":"Johnston Group","latitude":57.0771327,"longitude":34.9961191},
{"ipv4":"186.37.245.133/23","country":"Norway","city":"Oslo","provider":"Wintheiser Inc","latitude":59.8228866,"longitude":10.855315},
{"ipv4":"41.118.227.166/31","country":"Brazil","city":"Otacílio Costa","provider":"Rempel-Schroeder","latitude":-27.4794141,"longitude":-50.1236024},
{"ipv4":"251.228.57.134/28","country":"Sweden","city":"Degeberga","provider":"Cole-Leuschke","latitude":55.8166469,"longitude":14.0959536},
{"ipv4":"198.1.109.5/28","country":"Indonesia","city":"Sulo","provider":"Littel-Schmeler","latitude":-7.8225778,"longitude":110.3843618},
{"ipv4":"39.178.116.221/28","country":"China","city":"Gensi","provider":"Gerlach Inc","latitude":32.250769,"longitude":120.016375},
{"ipv4":"228.154.32.88/22","country":"Uzbekistan","city":"Tashkent","provider":"Murphy LLC","latitude":41.2994958,"longitude":69.2400734},
{"ipv4":"96.145.244.53/20","country":"China","city":"Jiyizhuang","provider":"Reichert-King","latitude":39.239268,"longitude":113.494587},
{"ipv4":"36.251.213.135/28","country":"Bosnia and Herzegovina","city":"Starcevica","provider":"Gibson Inc","latitude":44.7607693,"longitude":17.2038547},
{"ipv4":"45.205.204.230/18","country":"Czech Republic","city":"Paseka","provider":"Stokes, Thiel and Kassulke","latitude":49.7979942,"longitude":17.2369478},
{"ipv4":"186.56.55.211/20","country":"Indonesia","city":"Leworook","provider":"Will and Sons","latitude":-8.3870308,"longitude":122.8295192},
{"ipv4":"249.246.41.4/28","country":"China","city":"Fanzhen","provider":"Reinger-Mueller","latitude":36.215157,"longitude":117.377715},
{"ipv4":"93.225.53.238/23","country":"China","city":"Hujia","provider":"Hettinger, Zboncak and Kunde","latitude":39.9226132,"longitude":116.4606871},
{"ipv4":"255.44.145.237/28","country":"Macedonia","city":"Kochani","provider":"Hahn and Sons","latitude":41.9121057,"longitude":22.4068944},
{"ipv4":"224.242.179.92/24","country":"Brazil","city":"Sertânia","provider":"Mayert Group","latitude":-8.0751481,"longitude":-37.269356},
{"ipv4":"36.252.148.60/24","country":"Jordan","city":"Safi","provider":"Stanton and Sons","latitude":31.975951,"longitude":35.853029},
{"ipv4":"131.175.79.226/21","country":"Bangladesh","city":"Dinājpur","provider":"Sanford LLC","latitude":25.6279123,"longitude":88.6331758},
{"ipv4":"213.62.112.48/18","country":"Colombia","city":"Quimbaya","provider":"Gorczany, Kozey and Hickle","latitude":4.625907,"longitude":-75.761865},
{"ipv4":"163.173.86.223/24","country":"Denmark","city":"København","provider":"Renner-Hintz","latitude":55.6782044,"longitude":12.5720689},
{"ipv4":"225.147.237.166/28","country":"Mongolia","city":"Hödrögö","provider":"Yost-Ondricka","latitude":48.966667,"longitude":96.783333},
{"ipv4":"195.253.153.126/25","country":"Portugal","city":"Passagem","provider":"Stracke Inc","latitude":39.8768811,"longitude":-8.9140418},
{"ipv4":"30.120.50.93/24","country":"Sierra Leone","city":"Loma","provider":"Langworth LLC","latitude":9.1666667,"longitude":-11.1166667},
{"ipv4":"61.217.32.177/28","country":"Philippines","city":"Sabang","provider":"Spinka and Sons","latitude":14.0767924,"longitude":121.3439494},
{"ipv4":"125.115.160.56/16","country":"Portugal","city":"Aviúges","provider":"Roob and Sons","latitude":40.7331596,"longitude":-7.8222033},
{"ipv4":"93.19.254.114/28","country":"Ecuador","city":"Velasco Ibarra","provider":"Jones and Sons","latitude":-1.0460477,"longitude":-79.6333674},
{"ipv4":"112.216.56.178/17","country":"Afghanistan","city":"Khūgyāṉī","provider":"Hartmann-Lang","latitude":34.2292129,"longitude":70.1932084},
{"ipv4":"254.102.183.62/24","country":"Spain","city":"Tarragona","provider":"Murray, Borer and Schinner","latitude":40.9380536,"longitude":0.3183792},
{"ipv4":"222.150.248.164/28","country":"Philippines","city":"Bagroy","provider":"Mante Group","latitude":10.5333328,"longitude":122.8333359},
{"ipv4":"9.87.238.254/18","country":"China","city":"Xiaosong","provider":"Mayert, Ryan and Bergnaum","latitude":31.827364,"longitude":119.9690478},
{"ipv4":"227.124.43.99/27","country":"Vietnam","city":"Nghĩa Hành","provider":"Skiles and Sons","latitude":15.0026852,"longitude":108.7838572},
{"ipv4":"14.17.220.11/24","country":"Sri Lanka","city":"Pita Kotte","provider":"Adams, McCullough and Walsh","latitude":6.9280156,"longitude":79.8908308},
{"ipv4":"27.199.239.28/20","country":"China","city":"Chixi","provider":"Tillman Group","latitude":30.169665,"longitude":121.266579},
{"ipv4":"184.171.212.227/19","country":"Sweden","city":"Boxholm","provider":"Hahn, Cartwright and Schroeder","latitude":58.1970987,"longitude":15.0537794},
{"ipv4":"171.19.209.117/28","country":"Sweden","city":"Vellinge","provider":"Lakin, Dicki and Beier","latitude":55.4738346,"longitude":13.0125224},
{"ipv4":"231.150.62.88/25","country":"Indonesia","city":"Dinititi","provider":"Raynor, Krajcik and Konopelski","latitude":-10.5125,"longitude":121.8513},
{"ipv4":"217.107.195.139/28","country":"Cuba","city":"Río Cauto","provider":"Johns, O'Reilly and Roob","latitude":20.5599652,"longitude":-76.9095647},
{"ipv4":"45.165.93.85/28","country":"Portugal","city":"Mourelos","provider":"Kessler-Murphy","latitude":40.2766272,"longitude":-8.4903311},
{"ipv4":"77.79.240.76/28","country":"Ukraine","city":"Komyshuvakha","provider":"Ortiz, Nitzsche and Jast","latitude":47.7129895,"longitude":35.533341},
{"ipv4":"53.139.247.239/17","country":"Russia","city":"Podkamennaya Tunguska","provider":"Strosin and Sons","latitude":61.609528,"longitude":90.129524},
{"ipv4":"156.216.254.106/16","country":"Argentina","city":"Arroyo Seco","provider":"Crist-Crooks","latitude":-37.3130297,"longitude":-59.0746886},
{"ipv4":"139.98.69.162/27","country":"Indonesia","city":"Cipeundeuy","provider":"Murphy, Fritsch and Kirlin","latitude":-6.7299868,"longitude":107.359399},
{"ipv4":"43.191.252.151/28","country":"North Korea","city":"Hamhŭng","provider":"Rogahn, Kihn and Jakubowski","latitude":39.9838002,"longitude":127.6124552},
{"ipv4":"122.14.72.239/24","country":"Indonesia","city":"Tawun","provider":"Tillman, VonRueden and Aufderhar","latitude":-7.3945499,"longitude":111.4901903},
{"ipv4":"194.83.15.145/25","country":"South Korea","city":"Kyonju","provider":"Casper Inc","latitude":35.8561719,"longitude":129.2247477},
{"ipv4":"27.189.53.108/23","country":"Russia","city":"Voloshka","provider":"Jacobi-Schmidt","latitude":61.337971,"longitude":40.081276},
{"ipv4":"103.117.55.123/29","country":"Japan","city":"Iwamizawa","provider":"Kris Inc","latitude":40.0611652,"longitude":140.142219},
{"ipv4":"61.4.240.255/28","country":"Kyrgyzstan","city":"Sulyukta","provider":"Parisian, Farrell and McKenzie","latitude":39.9338165,"longitude":69.5678329},
{"ipv4":"207.148.230.91/25","country":"China","city":"Zhong’an","provider":"Kunze, Christiansen and Osinski","latitude":36.498937,"longitude":117.026653},
{"ipv4":"80.177.184.29/26","country":"Colombia","city":"Balboa","provider":"Metz LLC","latitude":4.9497479,"longitude":-75.958017},
{"ipv4":"41.134.250.8/26","country":"Russia","city":"Vesëlyy","provider":"Sanford, Lowe and Bergnaum","latitude":47.0914911,"longitude":40.7454595},
{"ipv4":"144.60.113.46/25","country":"Macedonia","city":"Kamenjane","provider":"Hand-Cartwright","latitude":41.9432941,"longitude":20.9481376},
{"ipv4":"11.188.146.25/19","country":"Indonesia","city":"Alukama","provider":"Bernier, Fahey and Hilpert","latitude":-10.7400087,"longitude":123.0453219},
{"ipv4":"140.243.116.106/24","country":"China","city":"Erdao","provider":"O'Conner, Johns and Lakin","latitude":43.865595,"longitude":125.374217},
{"ipv4":"95.237.175.88/24","country":"Ukraine","city":"Skhodnitsa","provider":"Rodriguez-Torphy","latitude":49.2251043,"longitude":23.3483512},
{"ipv4":"128.202.2.17/20","country":"Madagascar","city":"Anjozorobe","provider":"Bayer, Howe and Haag","latitude":-18.4001194,"longitude":47.8699039},
{"ipv4":"40.45.204.211/24","country":"Mexico","city":"El Mirador","provider":"Ullrich, Yost and Walsh","latitude":19.268942,"longitude":-99.1825465},
{"ipv4":"172.241.14.50/24","country":"Philippines","city":"Montevista","provider":"Barrows, Koelpin and Wisozk","latitude":14.5703297,"longitude":121.1473998},
{"ipv4":"197.233.194.93/28","country":"Brazil","city":"Benevides","provider":"Lubowitz and Sons","latitude":-1.3524989,"longitude":-48.2592606},
{"ipv4":"48.93.45.74/31","country":"Philippines","city":"Amadeo","provider":"Miller, Schoen and Welch","latitude":14.155481,"longitude":120.92747},
{"ipv4":"19.17.174.10/28","country":"Greenland","city":"Uummannaq","provider":"Corkery-VonRueden","latitude":70.67472,"longitude":-52.12639},
{"ipv4":"0.109.200.96/31","country":"Mongolia","city":"Ulaan Khat","provider":"Brekke and Sons","latitude":47.98257,"longitude":89.84173},
{"ipv4":"234.243.61.182/17","country":"Syria","city":"As Sukhnah","provider":"Macejkovic-Gaylord","latitude":34.8856144,"longitude":38.8754323},
{"ipv4":"215.67.17.248/19","country":"Indonesia","city":"Padhahegha","provider":"Hintz-Kshlerin","latitude":-8.7733,"longitude":121.137},
{"ipv4":"240.235.150.20/25","country":"United States","city":"Des Moines","provider":"Strosin Group","latitude":41.6,"longitude":-93.61},
{"ipv4":"68.2.34.129/21","country":"China","city":"Sui’an","provider":"Schulist LLC","latitude":24.115578,"longitude":117.618772},
{"ipv4":"40.139.102.173/28","country":"Indonesia","city":"Koronganayam","provider":"Parisian, Spinka and Hermann","latitude":-6.2969238,"longitude":106.9222137},
{"ipv4":"3.215.94.136/26","country":"Thailand","city":"Sattahip","provider":"Labadie-Dibbert","latitude":12.6836578,"longitude":100.901604},
{"ipv4":"239.142.185.155/24","country":"China","city":"Jiashan","provider":"Veum-Lindgren","latitude":30.830898,"longitude":120.92585},
{"ipv4":"228.72.138.194/26","country":"China","city":"Gangba","provider":"Franecki-Schinner","latitude":28.274601,"longitude":88.520031},
{"ipv4":"154.41.8.194/24","country":"Russia","city":"Talitsa","provider":"Thompson-Reilly","latitude":56.8810476,"longitude":60.0156754},
{"ipv4":"136.59.26.220/24","country":"China","city":"Shangma","provider":"Sporer-Turcotte","latitude":40.8151906,"longitude":111.6954214},
{"ipv4":"135.200.169.255/24","country":"Ukraine","city":"Krasnotorka","provider":"Lehner-White","latitude":48.6828993,"longitude":37.5280345},
{"ipv4":"98.155.160.162/31","country":"China","city":"Erling","provider":"Keebler-Krajcik","latitude":26.6679155,"longitude":105.7676313},
{"ipv4":"59.223.99.12/20","country":"China","city":"Songzhuang","provider":"Thiel-Jones","latitude":39.964054,"longitude":116.714967},
{"ipv4":"83.21.39.72/24","country":"Greece","city":"Diónysos","provider":"Conn and Sons","latitude":38.0987438,"longitude":23.8790184},
{"ipv4":"71.139.119.218/29","country":"France","city":"Roissy Charles-de-Gaulle","provider":"Walter Group","latitude":49.0096906,"longitude":2.5479245},
{"ipv4":"233.204.132.74/26","country":"Poland","city":"Miejska Górka","provider":"Koelpin-McDermott","latitude":51.6551687,"longitude":16.9564844},
{"ipv4":"208.251.178.162/30","country":"Senegal","city":"Joal-Fadiout","provider":"Casper-Pfannerstill","latitude":14.1811693,"longitude":-16.8502879},
{"ipv4":"229.119.21.40/24","country":"China","city":"Maying","provider":"Smith, Klein and Shanahan","latitude":38.235041,"longitude":115.726317},
{"ipv4":"142.178.229.142/28","country":"China","city":"Jianjiang","provider":"Gleason-Blanda","latitude":24.781681,"longitude":118.552365},
{"ipv4":"246.29.236.133/16","country":"Ireland","city":"Dunleer","provider":"Treutel, Kerluke and Goyette","latitude":51.8863277,"longitude":-8.5176583},
{"ipv4":"47.221.84.20/24","country":"China","city":"Dangmu","provider":"Greenholt, Kozey and Schowalter","latitude":34.814591,"longitude":109.629628},
{"ipv4":"111.221.110.102/19","country":"China","city":"Wushan","provider":"Wisoky, Rodriguez and Gibson","latitude":31.074834,"longitude":109.879153},
{"ipv4":"61.63.94.93/24","country":"United States","city":"Arlington","provider":"Yundt, Ruecker and Rau","latitude":38.8807023,"longitude":-77.1086041},
{"ipv4":"180.255.137.109/24","country":"Canada","city":"Nackawic","provider":"Kuhn, Miller and Schmeler","latitude":45.9891389,"longitude":-67.2412221},
{"ipv4":"92.229.102.243/24","country":"China","city":"Zoushi","provider":"Bahringer-Quitzon","latitude":29.051304,"longitude":111.546653},
{"ipv4":"41.61.127.99/31","country":"Poland","city":"Borzęta","provider":"Waelchi Group","latitude":49.86228,"longitude":19.97924},
{"ipv4":"244.188.119.146/28","country":"Honduras","city":"Quimistán","provider":"Bergnaum, Cartwright and Predovic","latitude":15.3483742,"longitude":-88.3967536},
{"ipv4":"3.207.102.200/22","country":"Afghanistan","city":"Tsapêraī","provider":"Mayer, Predovic and Hintz","latitude":33.83003,"longitude":69.9192},
{"ipv4":"125.175.125.26/21","country":"Indonesia","city":"Sumurgung","provider":"Boyle, Powlowski and Jaskolski","latitude":-6.8926501,"longitude":112.0103765},
{"ipv4":"228.213.46.192/27","country":"Honduras","city":"Choloma","provider":"Gorczany, Deckow and Hane","latitude":15.596502,"longitude":-87.9432837},
{"ipv4":"137.232.216.246/28","country":"Hong Kong","city":"Sok Kwu Wan","provider":"Morar-Fahey","latitude":22.2100066,"longitude":114.133531},
{"ipv4":"20.196.154.199/24","country":"Greece","city":"Argostólion","provider":"Tromp-Jerde","latitude":38.1731682,"longitude":20.4899734},
{"ipv4":"121.157.207.71/26","country":"Poland","city":"Stanisław Górny","provider":"McGlynn-Bode","latitude":49.8922979,"longitude":19.621588},
{"ipv4":"237.140.129.246/24","country":"Bosnia and Herzegovina","city":"Bosanski Novi","provider":"Dach, Friesen and McDermott","latitude":45.0486976,"longitude":16.3746171},
{"ipv4":"121.118.227.177/28","country":"Serbia","city":"Despotovac","provider":"Runolfsdottir LLC","latitude":44.0970463,"longitude":21.4322091},
{"ipv4":"39.237.250.134/31","country":"United States","city":"Dallas","provider":"Doyle and Sons","latitude":32.7030883,"longitude":-96.8029489},
{"ipv4":"228.182.57.233/21","country":"Indonesia","city":"Awar-awar","provider":"Gulgowski Inc","latitude":-7.76929,"longitude":114.2241895},
{"ipv4":"153.119.13.205/24","country":"Ireland","city":"Ballymahon","provider":"Morissette and Sons","latitude":53.5650926,"longitude":-7.7655701},
{"ipv4":"238.253.67.85/24","country":"South Africa","city":"Tembisa","provider":"Kuhic, Boyle and Runolfsson","latitude":-25.99566,"longitude":28.1971031},
{"ipv4":"72.231.35.55/19","country":"Ukraine","city":"Baturyn","provider":"Nicolas, Moore and Bayer","latitude":51.3412504,"longitude":32.8797802},
{"ipv4":"184.138.1.206/28","country":"China","city":"Yanglin","provider":"Connelly LLC","latitude":27.955261,"longitude":112.497228},
{"ipv4":"151.230.77.137/21","country":"United States","city":"Montgomery","provider":"Beahan-Rogahn","latitude":32.3855324,"longitude":-86.2514126},
{"ipv4":"188.156.116.19/30","country":"Egypt","city":"Manfalūţ","provider":"Bogisich, Bruen and Hane","latitude":27.3115158,"longitude":30.9713333},
{"ipv4":"66.216.75.81/16","country":"Czech Republic","city":"Kaznějov","provider":"Block and Sons","latitude":49.8931387,"longitude":13.3829583},
{"ipv4":"35.109.212.119/24","country":"Sweden","city":"Huddinge","provider":"Rempel, Kuvalis and Bechtelar","latitude":59.2234099,"longitude":17.9436913},
{"ipv4":"237.232.231.18/28","country":"Philippines","city":"Abut","provider":"Stehr Group","latitude":18.5286072,"longitude":120.791828},
{"ipv4":"93.73.115.215/17","country":"Russia","city":"Olenegorsk","provider":"Leannon-Klocko","latitude":68.0986274,"longitude":33.9686556},
{"ipv4":"159.206.95.249/22","country":"Brazil","city":"Juatuba","provider":"Tremblay Group","latitude":-19.9433029,"longitude":-44.3413836},
{"ipv4":"204.41.243.205/30","country":"Vietnam","city":"A Yun Pa","provider":"Collins, Mohr and Herman","latitude":13.3743393,"longitude":108.3989809},
{"ipv4":"69.104.131.180/28","country":"Bangladesh","city":"Kishorganj","provider":"Kassulke-West","latitude":24.2442046,"longitude":90.8163059},
{"ipv4":"168.79.95.49/23","country":"Afghanistan","city":"Sar-e Pul","provider":"Emmerich Group","latitude":35.6707473,"longitude":66.0463534},
{"ipv4":"169.230.235.14/28","country":"China","city":"Jinze","provider":"Emard LLC","latitude":31.036218,"longitude":120.921726},
{"ipv4":"192.43.54.235/28","country":"Indonesia","city":"Depok","provider":"Kuhn and Sons","latitude":-6.4024844,"longitude":106.7942405},
{"ipv4":"203.128.123.21/24","country":"China","city":"Zhangdian","provider":"Kuhlman Inc","latitude":36.806669,"longitude":118.017938},
{"ipv4":"230.160.126.237/21","country":"China","city":"Zhangping","provider":"Mills-Wehner","latitude":25.290184,"longitude":117.419998},
{"ipv4":"141.240.244.104/26","country":"Thailand","city":"Non Sung","provider":"Jones, Dickinson and Johnston","latitude":15.1805822,"longitude":102.2575235},
{"ipv4":"89.110.235.33/25","country":"Tanzania","city":"Mahuta","provider":"Wuckert, Kiehn and Labadie","latitude":-10.8731945,"longitude":39.4217212},
{"ipv4":"235.71.194.155/27","country":"Guatemala","city":"Gualán","provider":"Hudson, Heidenreich and Abbott","latitude":15.113515,"longitude":-89.362656},
{"ipv4":"107.166.9.200/24","country":"Indonesia","city":"Watubuku","provider":"Schaefer-Turcotte","latitude":-8.605,"longitude":122.743},
{"ipv4":"47.121.222.192/24","country":"Panama","city":"La Mesa","provider":"Powlowski and Sons","latitude":8.1524286,"longitude":-81.1802619},
{"ipv4":"255.165.40.17/29","country":"Russia","city":"Nyuksenitsa","provider":"Rogahn, Kemmer and Stoltenberg","latitude":60.4136423,"longitude":44.2412709},
{"ipv4":"205.247.10.107/30","country":"Indonesia","city":"Kurnia","provider":"Ryan-Bosco","latitude":1.148102,"longitude":104.011505},
{"ipv4":"59.96.33.18/18","country":"Yemen","city":"Radā‘","provider":"VonRueden, Friesen and Sanford","latitude":14.41225,"longitude":44.836578},
{"ipv4":"26.166.115.86/19","country":"Philippines","city":"Barra","provider":"Lakin, Luettgen and Marks","latitude":8.5135012,"longitude":124.6050668},
{"ipv4":"162.30.97.193/28","country":"China","city":"Wangda","provider":"Feil LLC","latitude":28.9141178,"longitude":120.0531443},
{"ipv4":"38.45.186.30/28","country":"South Africa","city":"Komga","provider":"Schiller-Braun","latitude":-32.5906095,"longitude":27.8838873},
{"ipv4":"225.227.37.107/29","country":"Indonesia","city":"Banjar Pekandelan","provider":"Upton-Borer","latitude":-8.7224002,"longitude":115.1746415},
{"ipv4":"115.140.93.212/24","country":"China","city":"Dingyan","provider":"Yundt-Koelpin","latitude":26.5836,"longitude":104.857063},
{"ipv4":"95.13.142.150/25","country":"Poland","city":"Wilkowice","provider":"Hayes Inc","latitude":49.7624347,"longitude":19.0904515},
{"ipv4":"181.64.205.249/24","country":"Philippines","city":"Luzon","provider":"Emmerich, Zemlak and Wiza","latitude":14.507891,"longitude":121.0529345},
{"ipv4":"184.25.176.107/22","country":"Poland","city":"Sośno","provider":"Ledner Inc","latitude":53.3934077,"longitude":17.6633805},
{"ipv4":"36.212.91.131/24","country":"Chad","city":"Bokoro","provider":"Mueller, Schmitt and Abshire","latitude":12.3783745,"longitude":17.0568962},
{"ipv4":"123.118.118.156/24","country":"Philippines","city":"Lallayug","provider":"Koepp, McClure and Cremin","latitude":17.7127202,"longitude":121.4424473},
{"ipv4":"139.36.21.131/24","country":"Greece","city":"Krokeaí","provider":"Treutel-Stamm","latitude":36.883077,"longitude":22.5489792},
{"ipv4":"226.215.43.35/21","country":"Philippines","city":"Labney","provider":"Kuphal, Feeney and Macejkovic","latitude":15.7147233,"longitude":120.851094},
{"ipv4":"168.160.19.240/24","country":"Armenia","city":"Vanadzor","provider":"Paucek Inc","latitude":40.807399,"longitude":44.4970268},
{"ipv4":"126.9.0.236/24","country":"Thailand","city":"Ban Mai","provider":"Feeney Group","latitude":17.9469612,"longitude":98.8113193},
{"ipv4":"165.21.210.51/24","country":"Germany","city":"Stuttgart","provider":"Crist-Yost","latitude":48.7226206,"longitude":9.1584836},
{"ipv4":"190.141.33.241/27","country":"China","city":"Liuliping","provider":"Prosacco Group","latitude":32.53292,"longitude":110.983684},
{"ipv4":"54.158.238.197/28","country":"Japan","city":"Kōriyama","provider":"Becker, Maggio and Barrows","latitude":37.3916313,"longitude":140.3798031},
{"ipv4":"9.227.132.57/20","country":"Afghanistan","city":"Pārūn","provider":"Koss, Wilkinson and Gutkowski","latitude":35.3170344,"longitude":70.8744255},
{"ipv4":"89.101.142.129/27","country":"China","city":"Mashan","provider":"Kshlerin Group","latitude":45.212088,"longitude":130.478187},
{"ipv4":"37.207.84.39/28","country":"Indonesia","city":"Kebonan","provider":"Champlin, Brekke and Roberts","latitude":-7.355927,"longitude":110.6422198},
{"ipv4":"115.60.212.88/24","country":"Brazil","city":"Chapadinha","provider":"Halvorson Group","latitude":-3.7415256,"longitude":-43.360096},
{"ipv4":"94.74.161.170/28","country":"Zimbabwe","city":"Gweru","provider":"Barrows LLC","latitude":-19.468531,"longitude":29.8120795},
{"ipv4":"253.37.83.11/30","country":"Germany","city":"Wuppertal","provider":"Pollich Inc","latitude":51.2034374,"longitude":7.1301012},
{"ipv4":"129.153.205.58/24","country":"Japan","city":"Otaru","provider":"Feil LLC","latitude":32.9267098,"longitude":130.845304},
{"ipv4":"247.31.14.105/20","country":"Indonesia","city":"Serang","provider":"Feil, Block and Mueller","latitude":-6.1103661,"longitude":106.1639749},
{"ipv4":"20.204.198.174/24","country":"Indonesia","city":"Ciklapa","provider":"DuBuque LLC","latitude":-7.5009787,"longitude":108.7987084},
{"ipv4":"179.45.146.167/25","country":"Russia","city":"Promyshlennaya","provider":"Mohr, Ferry and Steuber","latitude":54.914389,"longitude":85.646652},
{"ipv4":"86.118.183.222/24","country":"China","city":"Caitang","provider":"Rogahn-Cummings","latitude":24.63827,"longitude":118.285336},
{"ipv4":"176.204.43.222/24","country":"Peru","city":"Laramate","provider":"Windler, Adams and Heidenreich","latitude":-14.25575,"longitude":-74.8591919},
{"ipv4":"65.28.64.82/16","country":"Peru","city":"Paico","provider":"Kuphal, Dickens and Kautzer","latitude":-13.7134562,"longitude":-76.1841701},
{"ipv4":"100.71.50.61/28","country":"Colombia","city":"Juradó","provider":"Anderson LLC","latitude":6.7911741,"longitude":-77.5504779},
{"ipv4":"220.192.27.127/24","country":"Indonesia","city":"Palalang","provider":"Marks and Sons","latitude":-7.0250344,"longitude":113.5758261},
{"ipv4":"3.102.237.171/24","country":"China","city":"Xiangshui","provider":"McDermott Group","latitude":34.199479,"longitude":119.578364},
{"ipv4":"216.201.245.139/23","country":"Mongolia","city":"Sharïngol","provider":"Kozey and Sons","latitude":49.2575136,"longitude":106.4385875},
{"ipv4":"31.57.122.39/29","country":"France","city":"Paris 09","provider":"Kreiger Group","latitude":43.4945737,"longitude":5.8978018},
{"ipv4":"122.209.249.59/24","country":"Indonesia","city":"Gapuk","provider":"Robel-Weimann","latitude":-8.6743207,"longitude":116.1093533},
{"ipv4":"215.249.218.49/27","country":"France","city":"Chelles","provider":"Parisian LLC","latitude":45.3954435,"longitude":3.828292},
{"ipv4":"189.9.250.65/28","country":"Albania","city":"Lekas","provider":"Ondricka Inc","latitude":40.6021201,"longitude":20.5118628},
{"ipv4":"81.44.72.103/28","country":"Philippines","city":"Buawan","provider":"Ullrich, Weber and Grimes","latitude":14.6423905,"longitude":120.9575622},
{"ipv4":"224.159.51.153/31","country":"Czech Republic","city":"Kraslice","provider":"Daniel, Rempel and D'Amore","latitude":50.3237353,"longitude":12.5174875},
{"ipv4":"53.24.252.149/24","country":"Marshall Islands","city":"Lae","provider":"Kuhic and Sons","latitude":44.256487,"longitude":-76.033479},
{"ipv4":"111.104.85.90/24","country":"China","city":"Dongtang","provider":"Leannon Inc","latitude":39.302809,"longitude":99.275837},
{"ipv4":"56.221.250.103/24","country":"Indonesia","city":"Dajasongai","provider":"Collier Inc","latitude":-7.04486,"longitude":113.73422},
{"ipv4":"200.100.8.246/16","country":"Portugal","city":"Refojos","provider":"Bogisich, Muller and Lehner","latitude":41.5162209,"longitude":-7.9927714},
{"ipv4":"241.234.37.139/25","country":"Jamaica","city":"Half Way Tree","provider":"Hirthe Inc","latitude":18.0120542,"longitude":-76.7984918},
{"ipv4":"140.190.252.28/24","country":"China","city":"Xianshui","provider":"Towne, Kirlin and Ziemann","latitude":30.975215,"longitude":101.127088},
{"ipv4":"228.155.17.217/31","country":"China","city":"Lian’an","provider":"Cartwright-Medhurst","latitude":22.912687,"longitude":115.297893},
{"ipv4":"197.188.245.99/21","country":"Indonesia","city":"Sidomekar","provider":"Herzog Inc","latitude":-8.2125477,"longitude":113.4597505},
{"ipv4":"196.58.91.162/30","country":"China","city":"Daming","provider":"Runolfsson-Macejkovic","latitude":36.285616,"longitude":115.147814},
{"ipv4":"180.21.119.204/24","country":"China","city":"Jinbi","provider":"Leuschke and Sons","latitude":29.650449,"longitude":98.533976},
{"ipv4":"28.49.231.27/24","country":"Poland","city":"Chojnice","provider":"Zulauf, Robel and Altenwerth","latitude":53.6944002,"longitude":17.5569252},
{"ipv4":"196.146.0.51/19","country":"China","city":"Jiaobei","provider":"Brekke and Sons","latitude":36.36257,"longitude":119.965782},
{"ipv4":"114.87.147.180/24","country":"Canada","city":"Revelstoke","provider":"Yundt-Rolfson","latitude":50.98317,"longitude":-118.2023},
{"ipv4":"117.101.63.130/24","country":"Indonesia","city":"Kurungannyawa","provider":"Erdman-Lynch","latitude":-4.2163479,"longitude":104.4694186},
{"ipv4":"88.42.216.227/24","country":"Philippines","city":"San Rafael","provider":"Konopelski, Harvey and Cremin","latitude":14.5697429,"longitude":121.0190818},
{"ipv4":"186.28.102.133/25","country":"Poland","city":"Krzanowice","provider":"Stroman-Walter","latitude":50.0281297,"longitude":18.1278226},
{"ipv4":"173.247.31.99/24","country":"Russia","city":"Prokhladnyy","provider":"Lockman-Altenwerth","latitude":56.07458,"longitude":92.8703415},
{"ipv4":"5.87.45.192/24","country":"France","city":"Andrézieux-Bouthéon","provider":"Walter and Sons","latitude":45.521777,"longitude":4.2552114},
{"ipv4":"153.141.99.213/28","country":"Indonesia","city":"Kotaagung","provider":"Schiller, Sipes and Lang","latitude":-5.4736254,"longitude":104.6471221},
{"ipv4":"63.250.182.178/28","country":"Fiji","city":"Lautoka","provider":"McLaughlin Group","latitude":-17.6169957,"longitude":177.4504888},
{"ipv4":"51.37.59.73/24","country":"Indonesia","city":"Margorejo","provider":"Metz Inc","latitude":-7.3161209,"longitude":112.7405377},
{"ipv4":"96.28.210.79/21","country":"Russia","city":"Lysogorskaya","provider":"Balistreri, Hickle and Corwin","latitude":44.1034877,"longitude":43.2768364},
{"ipv4":"129.208.182.94/19","country":"China","city":"Yujiawu","provider":"Schumm-Bosco","latitude":38.995854,"longitude":117.688815},
{"ipv4":"53.9.82.255/17","country":"Azerbaijan","city":"Buzovna","provider":"Veum and Sons","latitude":40.5152444,"longitude":50.0969652},
{"ipv4":"133.94.96.113/24","country":"Indonesia","city":"Wangkung","provider":"Volkman LLC","latitude":-8.2922696,"longitude":120.4415242},
{"ipv4":"9.1.79.254/23","country":"Argentina","city":"Tío Pujio","provider":"Breitenberg, Cartwright and Auer","latitude":-31.476524,"longitude":-64.2257559},
{"ipv4":"61.75.192.171/24","country":"Russia","city":"Grivenskaya","provider":"Harris, Herman and Lebsack","latitude":45.6446494,"longitude":38.1651985},
{"ipv4":"222.232.87.242/24","country":"China","city":"Qiaodong","provider":"Walsh Group","latitude":40.788434,"longitude":114.894189},
{"ipv4":"59.168.206.131/24","country":"Ireland","city":"Skerries","provider":"Kemmer, Spinka and Mraz","latitude":53.5834008,"longitude":-6.1349155},
{"ipv4":"146.226.124.187/24","country":"China","city":"Zumiao","provider":"Lockman-Kohler","latitude":23.027054,"longitude":113.111203},
{"ipv4":"42.26.4.246/25","country":"France","city":"Villeurbanne","provider":"Wisoky, Sauer and Rodriguez","latitude":45.7646846,"longitude":4.861724},
{"ipv4":"27.158.89.50/19","country":"Sri Lanka","city":"Valvedditturai","provider":"Kozey-Hartmann","latitude":9.7998986,"longitude":80.1489188},
{"ipv4":"232.141.241.21/24","country":"Russia","city":"Spirovo","provider":"Ortiz-Moen","latitude":57.4249784,"longitude":34.9683065},
{"ipv4":"204.166.102.125/24","country":"Indonesia","city":"Tanahmerah","provider":"Emard, Bartell and Hilpert","latitude":-6.080007,"longitude":140.276147},
{"ipv4":"202.150.20.32/29","country":"Indonesia","city":"Mentaraman Satu","provider":"Kuhic Group","latitude":-8.1924285,"longitude":112.7011258},
{"ipv4":"133.204.254.98/19","country":"Spain","city":"Palmas De Gran Canaria, Las","provider":"Purdy, Fay and Cruickshank","latitude":28.1236316,"longitude":-15.4287738},
{"ipv4":"50.205.247.120/18","country":"Philippines","city":"Payapa","provider":"Carroll Group","latitude":14.5719534,"longitude":121.0344899},
{"ipv4":"223.218.130.161/24","country":"Czech Republic","city":"Ostravice","provider":"Jast-Grady","latitude":49.5255788,"longitude":18.3904377},
{"ipv4":"19.29.12.206/28","country":"Czech Republic","city":"Valašská Bystřice","provider":"Donnelly Inc","latitude":49.4150717,"longitude":18.109785},
{"ipv4":"190.82.187.103/28","country":"China","city":"Daijiaba","provider":"Daugherty Group","latitude":33.010035,"longitude":106.179842},
{"ipv4":"16.219.184.201/18","country":"China","city":"Bohou","provider":"Kunde, Maggio and Bernhard","latitude":19.88374,"longitude":109.745545},
{"ipv4":"125.182.99.155/18","country":"France","city":"Villefranche-sur-Saône","provider":"Moore Group","latitude":45.991471,"longitude":4.718821},
{"ipv4":"149.159.20.53/24","country":"Indonesia","city":"Koblain","provider":"Witting, Swaniawski and Williamson","latitude":-10.168,"longitude":123.4767},
{"ipv4":"141.38.4.183/26","country":"China","city":"Hudong","provider":"Altenwerth-Jacobson","latitude":22.814304,"longitude":115.955191},
{"ipv4":"85.39.162.254/28","country":"Bangladesh","city":"Bhāndāria","provider":"Lueilwitz, Buckridge and Price","latitude":22.4410669,"longitude":90.0093266},
{"ipv4":"166.2.7.226/27","country":"Brazil","city":"Indaial","provider":"Cormier-Daniel","latitude":-27.0032601,"longitude":-49.2435998},
{"ipv4":"23.161.166.90/18","country":"China","city":"Pianbai","provider":"Frami-Kris","latitude":21.514163,"longitude":111.013556},
{"ipv4":"216.59.74.101/24","country":"Portugal","city":"Algoz","provider":"Kuhic, Pfannerstill and Heaney","latitude":37.1623309,"longitude":-8.3013935},
{"ipv4":"234.61.241.116/22","country":"China","city":"Xipu","provider":"O'Hara-Cummerata","latitude":26.885704,"longitude":120.005147},
{"ipv4":"102.170.74.100/24","country":"China","city":"Futian","provider":"Sauer, Stehr and Collins","latitude":22.521523,"longitude":114.055023},
{"ipv4":"183.250.247.1/24","country":"Madagascar","city":"Vavatenina","provider":"Heller LLC","latitude":-17.4652462,"longitude":49.2005539},
{"ipv4":"178.82.96.97/29","country":"Pakistan","city":"Sakrand","provider":"Ryan, Bode and Steuber","latitude":26.1372068,"longitude":68.2667265},
{"ipv4":"86.250.248.194/24","country":"Indonesia","city":"Manutapen","provider":"Gaylord, Larson and Jacobs","latitude":-10.1790674,"longitude":123.5770012},
{"ipv4":"232.85.137.112/27","country":"Indonesia","city":"Waru","provider":"Vandervort-Zieme","latitude":-7.3511436,"longitude":112.7688416},
{"ipv4":"56.73.180.135/22","country":"China","city":"Shatian","provider":"Braun Group","latitude":22.919769,"longitude":113.618216},
{"ipv4":"51.12.78.95/29","country":"Ukraine","city":"Krasnokuts’k","provider":"Beer, Spinka and Daugherty","latitude":50.0620325,"longitude":35.1582225},
{"ipv4":"223.87.40.106/24","country":"Syria","city":"Ḩammām Wāşil","provider":"Haley-Ondricka","latitude":35.07437,"longitude":36.08677},
{"ipv4":"40.155.98.50/24","country":"Russia","city":"Pochep","provider":"Bergstrom, Stroman and Williamson","latitude":52.8595744,"longitude":33.3645241},
{"ipv4":"222.64.83.144/24","country":"Indonesia","city":"Sempu","provider":"Ebert, Casper and Kuhlman","latitude":-8.4428564,"longitude":112.6973355},
{"ipv4":"77.208.140.191/24","country":"France","city":"Auch","provider":"Rutherford, Padberg and Hermann","latitude":43.6297603,"longitude":0.5815411},
{"ipv4":"53.202.208.156/16","country":"China","city":"Xin Bulag","provider":"Auer-Boyle","latitude":42.2375,"longitude":113.83639},
{"ipv4":"25.140.46.37/28","country":"United States","city":"El Paso","provider":"Fritsch LLC","latitude":31.77,"longitude":-106.43},
{"ipv4":"161.126.83.59/24","country":"Philippines","city":"Carmen","provider":"Daugherty Group","latitude":7.20312,"longitude":124.796217},
{"ipv4":"23.72.51.113/23","country":"Philippines","city":"Buayan","provider":"Tromp, Boyle and Yundt","latitude":6.1167871,"longitude":125.230372},
{"ipv4":"194.107.95.119/23","country":"Poland","city":"Cedry Wielkie","provider":"Fahey, Streich and Orn","latitude":54.2490828,"longitude":18.8664712},
{"ipv4":"81.48.86.183/21","country":"China","city":"Changjiangbu","provider":"Roob-Kreiger","latitude":30.855065,"longitude":113.734707},
{"ipv4":"242.230.241.19/24","country":"China","city":"Xiaoyi","provider":"Hane-Ortiz","latitude":37.146294,"longitude":111.778818},
{"ipv4":"172.150.137.33/28","country":"Indonesia","city":"Cidadap","provider":"Bosco and Sons","latitude":-6.8639965,"longitude":107.6067354},
{"ipv4":"72.179.138.174/28","country":"Greece","city":"Néa Flogitá","provider":"Green, Frami and Dooley","latitude":40.2608574,"longitude":23.2215193},
{"ipv4":"15.198.45.224/21","country":"Poland","city":"Skomlin","provider":"Lakin, Koch and Price","latitude":51.1691046,"longitude":18.3941226},
{"ipv4":"56.42.205.176/24","country":"Argentina","city":"Esperanza","provider":"Larkin-Konopelski","latitude":-34.8512671,"longitude":-58.6754654},
{"ipv4":"169.131.165.63/24","country":"China","city":"Zuhu","provider":"Schneider-Lynch","latitude":39.732646,"longitude":112.040028},
{"ipv4":"72.108.37.70/28","country":"Portugal","city":"Rio","provider":"Tremblay-Orn","latitude":41.6088994,"longitude":-8.7234712},
{"ipv4":"147.75.114.53/24","country":"United States","city":"Omaha","provider":"Farrell, Langworth and Koss","latitude":41.2101217,"longitude":-95.9991228},
{"ipv4":"97.218.215.85/24","country":"United States","city":"Fresno","provider":"Grimes-Von","latitude":29.4743666,"longitude":-98.5165167},
{"ipv4":"192.173.158.145/30","country":"Argentina","city":"San Carlos de Bolívar","provider":"Baumbach-Ferry","latitude":-36.23975,"longitude":-61.121304},
{"ipv4":"149.18.179.49/30","country":"Ecuador","city":"Portoviejo","provider":"Brakus, Towne and Erdman","latitude":-1.054723,"longitude":-80.4524903},
{"ipv4":"55.156.186.128/24","country":"Canada","city":"Ingersoll","provider":"Goodwin-Spinka","latitude":43.0370523,"longitude":-80.8810794},
{"ipv4":"125.253.220.250/28","country":"China","city":"Wushan","provider":"Klocko-Little","latitude":31.074834,"longitude":109.879153},
{"ipv4":"99.248.55.255/24","country":"Philippines","city":"Baylo","provider":"Stokes-Smitham","latitude":14.2462858,"longitude":121.4934758},
{"ipv4":"69.61.214.196/18","country":"Indonesia","city":"Sumbersewu","provider":"Smith Inc","latitude":-8.4031608,"longitude":114.3371145},
{"ipv4":"134.109.25.177/18","country":"Philippines","city":"Quintong","provider":"Steuber and Sons","latitude":15.9593855,"longitude":120.3136265},
{"ipv4":"204.241.177.108/28","country":"Palestinian Territory","city":"Masḩah","provider":"O'Conner-Jenkins","latitude":32.10828,"longitude":35.05096},
{"ipv4":"66.109.147.90/31","country":"Sweden","city":"Östhammar","provider":"Parker-Toy","latitude":60.2638215,"longitude":18.4529131},
{"ipv4":"120.118.1.123/28","country":"Venezuela","city":"Encontrados","provider":"Torp, Gutmann and Little","latitude":9.0578504,"longitude":-72.233418},
{"ipv4":"39.211.220.31/24","country":"Indonesia","city":"Tarakan","provider":"Turner-Donnelly","latitude":3.3273599,"longitude":117.5785049},
{"ipv4":"89.15.58.233/28","country":"Russia","city":"Lyubim","provider":"Hirthe-Krajcik","latitude":58.3605655,"longitude":40.6845699},
{"ipv4":"55.46.195.160/28","country":"Russia","city":"Petrovsk","provider":"Hand-Torphy","latitude":52.2876905,"longitude":45.3602833},
{"ipv4":"152.177.150.131/24","country":"Brazil","city":"Itambé","provider":"Howell Inc","latitude":-7.4443035,"longitude":-35.148879},
{"ipv4":"217.12.20.126/28","country":"Russia","city":"Cherskiy","provider":"Veum Group","latitude":57.7977392,"longitude":28.3466834},
{"ipv4":"110.208.248.208/30","country":"Morocco","city":"Tiznit","provider":"Langosh Inc","latitude":29.693392,"longitude":-9.732157},
{"ipv4":"138.161.54.19/28","country":"France","city":"Dijon","provider":"Gaylord-Moen","latitude":45.2977605,"longitude":2.5135985},
{"ipv4":"53.205.104.167/28","country":"Pakistan","city":"Khāngāh Dogrān","provider":"Goyette-Sipes","latitude":31.7746473,"longitude":73.5953173},
{"ipv4":"220.80.113.53/25","country":"Russia","city":"Khadyzhensk","provider":"Waelchi LLC","latitude":44.418695,"longitude":39.5314274},
{"ipv4":"100.84.15.238/31","country":"Luxembourg","city":"Bergem","provider":"Kertzmann, Collier and Crist","latitude":49.5206119,"longitude":6.0453754},
{"ipv4":"117.84.57.7/28","country":"Pakistan","city":"Chakwāl","provider":"Nikolaus, Okuneva and Kemmer","latitude":32.454801,"longitude":72.4228661},
{"ipv4":"79.28.255.149/28","country":"Honduras","city":"Trujillo","provider":"Kiehn, Okuneva and Tromp","latitude":15.9116789,"longitude":-85.9534465},
{"ipv4":"56.175.188.7/28","country":"Portugal","city":"Ponte","provider":"MacGyver-Weissnat","latitude":39.5421345,"longitude":-118.5736924},
{"ipv4":"242.221.64.0/25","country":"Germany","city":"Berlin","provider":"Sanford Inc","latitude":52.4639426,"longitude":13.3728893},
{"ipv4":"32.146.103.153/28","country":"Chile","city":"San Clemente","provider":"Bechtelar Inc","latitude":-35.5364676,"longitude":-71.4893705},
{"ipv4":"175.174.103.236/28","country":"Thailand","city":"Sam Khok","provider":"Tromp, Fritsch and Lang","latitude":14.0790588,"longitude":100.5071143},
{"ipv4":"1.189.7.202/30","country":"Czech Republic","city":"Bořetice","provider":"Ritchie Inc","latitude":48.9154732,"longitude":16.8550346},
{"ipv4":"187.250.21.235/17","country":"China","city":"Huibu","provider":"Ritchie and Sons","latitude":35.408609,"longitude":117.146885},
{"ipv4":"74.1.240.163/28","country":"Cyprus","city":"Kokkini Trimithia","provider":"Bayer, Collins and Spinka","latitude":35.1529042,"longitude":33.2110414},
{"ipv4":"65.242.237.170/24","country":"Ireland","city":"Athlone","provider":"Luettgen, Cummings and Rau","latitude":53.4231032,"longitude":-7.9428197},
{"ipv4":"190.10.244.137/24","country":"Russia","city":"Lyuban’","provider":"Welch, Hackett and Aufderhar","latitude":59.76039,"longitude":30.4754399},
{"ipv4":"159.34.60.171/28","country":"Poland","city":"Brwinów","provider":"Kuhlman LLC","latitude":52.142598,"longitude":20.7175048},
{"ipv4":"104.169.175.211/24","country":"Sweden","city":"Vikbolandet","provider":"Gaylord-Ferry","latitude":58.5014132,"longitude":16.8950982},
{"ipv4":"44.21.188.76/21","country":"Russia","city":"Koshki","provider":"Hegmann-Langworth","latitude":54.20802,"longitude":50.4676343},
{"ipv4":"46.239.246.30/21","country":"Philippines","city":"Buluangan","provider":"Sanford LLC","latitude":10.7179292,"longitude":122.3066411},
{"ipv4":"134.30.44.163/20","country":"China","city":"Liangwangzhuang","provider":"Leffler-Bahringer","latitude":39.025627,"longitude":116.975436},
{"ipv4":"49.8.170.231/23","country":"Nigeria","city":"Ukata","provider":"Marvin-Graham","latitude":10.8325561,"longitude":5.8274722},
{"ipv4":"179.70.246.134/19","country":"Russia","city":"Barnaul","provider":"White, Wiza and Satterfield","latitude":53.3276146,"longitude":83.7603436},
{"ipv4":"235.221.35.196/20","country":"Iraq","city":"Paynjuwayn","provider":"Simonis, Hyatt and Howell","latitude":35.6238725,"longitude":45.9491482},
{"ipv4":"48.247.146.28/28","country":"Indonesia","city":"Bantar","provider":"Wilkinson Inc","latitude":-6.3396406,"longitude":106.9889904},
{"ipv4":"123.28.33.24/29","country":"Indonesia","city":"Basiong","provider":"Kirlin Inc","latitude":-8.801499,"longitude":115.229209},
{"ipv4":"76.226.58.53/26","country":"Peru","city":"Lluchubamba","provider":"Greenholt and Sons","latitude":-7.5231833,"longitude":-77.9710098},
{"ipv4":"164.105.102.61/24","country":"Philippines","city":"Sebu","provider":"Wuckert Inc","latitude":10.2020988,"longitude":123.7530831},
{"ipv4":"189.230.54.47/24","country":"China","city":"Guanzhou","provider":"Stamm Inc","latitude":23.12911,"longitude":113.264385},
{"ipv4":"55.18.148.117/25","country":"Ukraine","city":"Chornomors’ke","provider":"Schroeder, Schoen and Halvorson","latitude":46.2952236,"longitude":30.6480855},
{"ipv4":"158.227.178.190/24","country":"Russia","city":"Kudinovo","provider":"Ratke, Schmitt and Cummerata","latitude":54.9907148,"longitude":36.2483787},
{"ipv4":"147.138.197.196/28","country":"Brazil","city":"Penha","provider":"Ritchie Group","latitude":-26.8039789,"longitude":-48.6489134},
{"ipv4":"3.226.134.4/16","country":"Uzbekistan","city":"Qozonketkan","provider":"Jerde-Paucek","latitude":43.0138941,"longitude":59.3627834},
{"ipv4":"206.13.73.252/28","country":"Argentina","city":"Ushuaia","provider":"Nitzsche-Wehner","latitude":-54.8079502,"longitude":-68.3214955},
{"ipv4":"58.109.20.24/28","country":"Argentina","city":"Cañuelas","provider":"Daugherty, Osinski and Champlin","latitude":-34.5875578,"longitude":-58.6433296},
{"ipv4":"118.7.62.57/31","country":"South Africa","city":"Grahamstown","provider":"Bechtelar-Brown","latitude":-33.3117281,"longitude":26.5145058},
{"ipv4":"116.213.222.1/24","country":"Portugal","city":"Carromeu","provider":"Leannon, Runolfsson and Crist","latitude":40.4140806,"longitude":-8.738467},
{"ipv4":"91.2.174.238/22","country":"China","city":"Sanjiang","provider":"Quigley and Sons","latitude":25.783198,"longitude":109.607675},
{"ipv4":"103.168.20.140/30","country":"Japan","city":"Tōkamachi","provider":"Marquardt, Farrell and Bahringer","latitude":37.1448926,"longitude":138.8255274},
{"ipv4":"136.143.241.200/19","country":"China","city":"Fenghua","provider":"O'Hara-Quigley","latitude":29.655143,"longitude":121.406995},
{"ipv4":"8.12.215.54/27","country":"Zimbabwe","city":"Esigodini","provider":"Hirthe LLC","latitude":-20.2906811,"longitude":28.9383082},
{"ipv4":"140.53.192.65/21","country":"Tanzania","city":"Katumba","provider":"Douglas Group","latitude":-9.2263237,"longitude":33.6422932},
{"ipv4":"73.168.150.183/26","country":"United States","city":"Fort Wayne","provider":"Grady-Rolfson","latitude":41.07,"longitude":-85.14},
{"ipv4":"4.61.12.225/24","country":"Cyprus","city":"Émpa","provider":"Oberbrunner, Nienow and Smitham","latitude":34.8066794,"longitude":32.4212424},
{"ipv4":"17.148.222.170/19","country":"China","city":"Yandun","provider":"Windler, Beatty and Runte","latitude":27.336513,"longitude":118.083288},
{"ipv4":"206.242.81.222/24","country":"Colombia","city":"Chinú","provider":"Oberbrunner Inc","latitude":9.0039801,"longitude":-75.3645369},
{"ipv4":"152.230.235.25/28","country":"Portugal","city":"Freixo de Numão","provider":"Powlowski, Schmeler and Beatty","latitude":41.0672146,"longitude":-7.2170293},
{"ipv4":"220.56.197.172/29","country":"China","city":"Jiangshi","provider":"Wiegand Inc","latitude":38.226652,"longitude":115.510218},
{"ipv4":"202.245.230.254/31","country":"Venezuela","city":"Ocumare del Tuy","provider":"Farrell Inc","latitude":10.0897999,"longitude":-66.784376},
{"ipv4":"140.178.27.77/24","country":"China","city":"Xomong","provider":"Kulas, Crona and Bruen","latitude":23.1833095,"longitude":113.358579},
{"ipv4":"200.158.222.187/16","country":"Sweden","city":"Stockholm","provider":"Ankunding-Deckow","latitude":47.0203207,"longitude":-68.1435046},
{"ipv4":"58.7.201.80/26","country":"Czech Republic","city":"Malé Svatoňovice","provider":"Schumm, Kilback and Schamberger","latitude":50.5339443,"longitude":16.0497864},
{"ipv4":"86.150.75.51/16","country":"Brazil","city":"Moreno","provider":"Hane Inc","latitude":-8.1091223,"longitude":-35.0838562},
{"ipv4":"46.4.220.15/24","country":"China","city":"Longshan","provider":"Paucek, Ortiz and Kozey","latitude":42.901533,"longitude":125.136451},
{"ipv4":"50.124.131.93/28","country":"Tunisia","city":"La Goulette","provider":"O'Kon and Sons","latitude":36.8200203,"longitude":10.3020843},
{"ipv4":"128.76.113.97/31","country":"China","city":"Danjiangkou","provider":"Pacocha-Kunze","latitude":32.540157,"longitude":111.513127},
{"ipv4":"163.89.105.134/20","country":"Kenya","city":"Kabarnet","provider":"Walker Inc","latitude":0.490107,"longitude":35.743418},
{"ipv4":"248.4.71.214/24","country":"China","city":"Qiaozhuang","provider":"Ratke-Torp","latitude":33.259035,"longitude":117.15878},
{"ipv4":"227.214.201.26/23","country":"China","city":"Barkol","provider":"Casper, Zemlak and Sauer","latitude":43.598763,"longitude":93.016624},
{"ipv4":"83.220.211.207/19","country":"France","city":"Belfort","provider":"Thompson, Morissette and Moore","latitude":47.613861,"longitude":6.785553},
{"ipv4":"85.4.152.1/28","country":"China","city":"Baohe","provider":"Ullrich, Kozey and Kunde","latitude":31.793861,"longitude":117.309522},
{"ipv4":"90.96.170.131/24","country":"China","city":"Baita","provider":"Balistreri-Bahringer","latitude":41.270347,"longitude":123.174325},
{"ipv4":"120.222.0.242/21","country":"Japan","city":"Hobaramachi","provider":"Smitham Group","latitude":37.8199686,"longitude":140.5540146},
{"ipv4":"146.192.90.4/22","country":"Brazil","city":"José Bonifácio","provider":"Hahn LLC","latitude":-21.0482479,"longitude":-49.6879727},
{"ipv4":"32.43.165.50/24","country":"Indonesia","city":"Soko","provider":"Schamberger, Becker and Dickinson","latitude":-7.0961965,"longitude":111.9403254},
{"ipv4":"73.244.89.59/30","country":"China","city":"Linquan","provider":"Farrell-Hudson","latitude":33.039715,"longitude":115.263115},
{"ipv4":"175.51.255.73/28","country":"Peru","city":"Chalcos","provider":"Reichert, Robel and Kuhn","latitude":-13.8556,"longitude":-73.758263},
{"ipv4":"142.90.191.230/24","country":"Greece","city":"Néa Ionía","provider":"McKenzie-Schamberger","latitude":38.0426062,"longitude":23.7536323},
{"ipv4":"180.221.24.220/28","country":"Brazil","city":"Piracicaba","provider":"Goodwin-Paucek","latitude":-22.7342864,"longitude":-47.6480644},
{"ipv4":"47.134.163.227/31","country":"China","city":"Lujing Zhen","provider":"Greenholt, Weissnat and Ward","latitude":34.319658,"longitude":104.562412},
{"ipv4":"190.252.49.37/19","country":"China","city":"Tangjiakou","provider":"Gulgowski LLC","latitude":40.767544,"longitude":114.886335},
{"ipv4":"45.108.51.166/24","country":"Slovenia","city":"Šentjur","provider":"Welch-Langworth","latitude":46.218184,"longitude":15.38742},
{"ipv4":"232.103.51.69/17","country":"Canada","city":"Arnprior","provider":"Schmeler Group","latitude":45.4331407,"longitude":-76.3609305},
{"ipv4":"97.176.152.165/24","country":"South Africa","city":"Bizana","provider":"Rempel-Padberg","latitude":-30.85775,"longitude":29.85391},
{"ipv4":"181.71.119.20/21","country":"Nicaragua","city":"Condega","provider":"McGlynn Inc","latitude":13.3649688,"longitude":-86.3959473},
{"ipv4":"177.207.127.1/24","country":"Latvia","city":"Viesīte","provider":"Jacobs Group","latitude":56.3448609,"longitude":25.5603229},
{"ipv4":"181.246.120.83/24","country":"Portugal","city":"Telhado","provider":"Hermiston and Sons","latitude":41.6429311,"longitude":-8.1464077},
{"ipv4":"164.50.71.186/19","country":"Sweden","city":"Västerås","provider":"Stehr, Schuppe and Oberbrunner","latitude":59.3754793,"longitude":16.4764129},
{"ipv4":"10.160.32.56/24","country":"Thailand","city":"Laem Sing","provider":"Trantow Group","latitude":12.4680818,"longitude":102.100396},
{"ipv4":"205.81.134.193/25","country":"Serbia","city":"Krivaja","provider":"Hills, Cole and Padberg","latitude":45.8074308,"longitude":19.6056613},
{"ipv4":"213.146.255.210/28","country":"Sweden","city":"Mönsterås","provider":"Stoltenberg-Jaskolski","latitude":56.9846069,"longitude":16.3374996},
{"ipv4":"166.49.75.1/24","country":"Canada","city":"Jonquière","provider":"Nader-Dach","latitude":48.3705292,"longitude":-71.2653479},
{"ipv4":"222.111.158.7/23","country":"Brazil","city":"Ijuí","provider":"Howe, McGlynn and Rau","latitude":-28.3833642,"longitude":-53.929557},
{"ipv4":"190.200.253.173/24","country":"Colombia","city":"Sincelejo","provider":"Pollich, Baumbach and Hoppe","latitude":9.2718747,"longitude":-75.4636031},
{"ipv4":"255.41.30.180/28","country":"China","city":"Diaofeng","provider":"Farrell, Welch and Stark","latitude":26.694208,"longitude":115.939083},
{"ipv4":"19.215.24.39/28","country":"Russia","city":"Novominskaya","provider":"Kassulke-Russel","latitude":46.3102523,"longitude":38.9634939},
{"ipv4":"136.64.234.45/24","country":"Indonesia","city":"Mancagahar","provider":"Larson, Hessel and Murazik","latitude":-7.6569277,"longitude":107.7073688},
{"ipv4":"74.10.250.217/17","country":"China","city":"Yatunpu","provider":"Greenholt-Green","latitude":22.915094,"longitude":112.044491},
{"ipv4":"186.104.20.123/24","country":"United States","city":"Aurora","provider":"Lind Group","latitude":39.6599999,"longitude":-104.84},
{"ipv4":"69.126.132.71/16","country":"Indonesia","city":"Ciseureuheun","provider":"Mertz, Fritsch and Marvin","latitude":-6.6126215,"longitude":105.7233814},
{"ipv4":"106.18.19.104/28","country":"Germany","city":"Berlin","provider":"Watsica, VonRueden and Sauer","latitude":52.4609077,"longitude":13.4815474},
{"ipv4":"254.20.106.99/24","country":"Ghana","city":"Obuasi","provider":"Hauck-Heathcote","latitude":6.2012073,"longitude":-1.6912512},
{"ipv4":"103.62.193.14/16","country":"Indonesia","city":"Jawatiwa","provider":"Walker, Wilkinson and Monahan","latitude":-8.6969761,"longitude":121.2769483},
{"ipv4":"115.162.235.244/24","country":"Philippines","city":"Gapan","provider":"Tromp-Gutmann","latitude":14.6274805,"longitude":120.9679677},
{"ipv4":"204.217.184.210/24","country":"China","city":"Quanling","provider":"Witting and Sons","latitude":28.373163,"longitude":116.079637},
{"ipv4":"252.204.233.195/28","country":"Germany","city":"Berlin","provider":"Lakin Inc","latitude":52.4856992,"longitude":13.3488258},
{"ipv4":"194.160.7.167/28","country":"Vietnam","city":"Vĩnh Tường","provider":"Blick Inc","latitude":21.2537742,"longitude":105.4899167},
{"ipv4":"43.187.111.122/18","country":"Albania","city":"Çepan","provider":"Terry, Pouros and Wiegand","latitude":40.4210295,"longitude":20.2616268},
{"ipv4":"158.228.134.74/24","country":"Vietnam","city":"Núi Sập","provider":"Wilderman, Greenholt and Lind","latitude":10.2581682,"longitude":105.2721456},
{"ipv4":"235.192.228.247/26","country":"Indonesia","city":"Waipare","provider":"VonRueden-Haag","latitude":-8.639266,"longitude":122.281829},
{"ipv4":"217.109.117.90/24","country":"Japan","city":"Yūki","provider":"Klocko Group","latitude":36.3034445,"longitude":139.8755526},
{"ipv4":"13.99.114.143/21","country":"New Zealand","city":"Brooklyn","provider":"Wolf-Hegmann","latitude":45.0725651,"longitude":-93.3873133},
{"ipv4":"51.75.184.114/28","country":"China","city":"Dengyue","provider":"Murazik, Russel and Gorczany","latitude":22.0293,"longitude":107.632598},
{"ipv4":"11.50.222.87/24","country":"Philippines","city":"Pata","provider":"Botsford-Kassulke","latitude":5.827963,"longitude":121.160161},
{"ipv4":"237.30.110.74/19","country":"Argentina","city":"Aranguren","provider":"Schowalter-Lockman","latitude":-34.6261642,"longitude":-58.4754013},
{"ipv4":"23.160.89.200/24","country":"China","city":"Changshu City","provider":"Russel LLC","latitude":31.654375,"longitude":120.752481},
{"ipv4":"46.174.62.40/29","country":"China","city":"Shuicha","provider":"Bechtelar and Sons","latitude":26.520513,"longitude":115.067761},
{"ipv4":"213.32.207.139/28","country":"China","city":"Shuangfeng","provider":"Harvey-Hickle","latitude":27.456658,"longitude":112.175245},
{"ipv4":"45.87.194.212/28","country":"China","city":"Huatanshan","provider":"Fritsch and Sons","latitude":28.706919,"longitude":117.821005},
{"ipv4":"103.244.72.64/21","country":"Uzbekistan","city":"Daxbet","provider":"Cormier-Christiansen","latitude":39.76389,"longitude":66.9125},
{"ipv4":"162.88.141.80/24","country":"China","city":"Zhouling","provider":"Beahan Group","latitude":35.119385,"longitude":109.167435},
{"ipv4":"68.214.246.48/28","country":"Honduras","city":"Tocoa","provider":"Bergnaum and Sons","latitude":15.6576354,"longitude":-85.9968479},
{"ipv4":"67.126.32.67/25","country":"Lithuania","city":"Panevėžys","provider":"Orn Group","latitude":55.7452926,"longitude":24.3713362},
{"ipv4":"112.186.246.0/24","country":"Ukraine","city":"Pavlysh","provider":"O'Conner Group","latitude":48.9181905,"longitude":33.3541538},
{"ipv4":"132.18.243.168/27","country":"Sweden","city":"Umeå","provider":"Kreiger Group","latitude":63.8277884,"longitude":20.2655577},
{"ipv4":"228.229.65.200/28","country":"Poland","city":"Jastrzębia Góra","provider":"Greenholt-Gleichner","latitude":51.9653089,"longitude":15.5284132},
{"ipv4":"86.141.118.207/24","country":"Croatia","city":"Rude","provider":"Herman, Jones and Trantow","latitude":45.7676321,"longitude":15.6745822},
{"ipv4":"137.189.226.33/24","country":"Honduras","city":"La Sarrosa","provider":"Stokes-Abshire","latitude":15.2939516,"longitude":-87.8501554},
{"ipv4":"51.234.108.220/24","country":"Philippines","city":"Malainen Luma","provider":"Turner and Sons","latitude":14.31865,"longitude":120.765351},
{"ipv4":"173.123.76.123/27","country":"United States","city":"San Antonio","provider":"Cartwright Inc","latitude":29.4143476,"longitude":-98.3910127},
{"ipv4":"49.240.104.202/23","country":"China","city":"Dongshe","provider":"Rowe, Morar and Schiller","latitude":23.701262,"longitude":117.430061},
{"ipv4":"192.146.44.140/24","country":"Indonesia","city":"Armopa","provider":"West-Smitham","latitude":-2.2875948,"longitude":139.6044141},
{"ipv4":"19.103.249.222/24","country":"Laos","city":"Không","provider":"Collins and Sons","latitude":14.1175166,"longitude":105.8547173},
{"ipv4":"55.198.18.219/17","country":"Argentina","city":"Aguilares","provider":"Vandervort, Olson and Littel","latitude":-27.4308908,"longitude":-65.6147813},
{"ipv4":"81.92.21.23/24","country":"China","city":"Dazhongzhuang","provider":"Weissnat-Keebler","latitude":32.425185,"longitude":114.387043},
{"ipv4":"230.35.44.40/23","country":"Indonesia","city":"Halteu","provider":"Williamson-Hermiston","latitude":-6.914339,"longitude":107.5788509},
{"ipv4":"68.239.247.90/22","country":"Ireland","city":"Killumney","provider":"Kreiger, Kuphal and Kuhlman","latitude":52.6638144,"longitude":-8.6340751},
{"ipv4":"218.149.124.57/26","country":"Sweden","city":"Göteborg","provider":"Keebler, Rippin and Mante","latitude":57.6983773,"longitude":11.982711},
{"ipv4":"42.82.203.67/20","country":"China","city":"Tuochuan","provider":"Bednar, Hartmann and Farrell","latitude":28.15041,"longitude":115.667833},
{"ipv4":"176.77.209.92/18","country":"Canada","city":"Calgary","provider":"Cronin-Mitchell","latitude":50.9359639,"longitude":-113.8998131},
{"ipv4":"93.17.213.5/30","country":"Brazil","city":"Bom Jesus do Itabapoana","provider":"Friesen, Schulist and Romaguera","latitude":-21.1330059,"longitude":-41.7407394},
{"ipv4":"210.137.129.104/20","country":"France","city":"Saumur","provider":"Grady Group","latitude":47.2623398,"longitude":-0.1393138},
{"ipv4":"35.64.73.19/31","country":"Ecuador","city":"Piñas","provider":"Gusikowski Inc","latitude":-3.680412,"longitude":-79.6825275},
{"ipv4":"161.98.220.94/24","country":"Russia","city":"Pallasovka","provider":"Streich-Rempel","latitude":50.0429768,"longitude":46.8886722},
{"ipv4":"171.75.82.39/25","country":"Brazil","city":"Biguaçu","provider":"Wuckert and Sons","latitude":-27.4955748,"longitude":-48.6553685},
{"ipv4":"40.196.175.171/28","country":"Dominican Republic","city":"Baní","provider":"Stamm, Jones and Kemmer","latitude":18.2540705,"longitude":-70.3600393},
{"ipv4":"121.104.81.202/23","country":"Mauritania","city":"Nouakchott","provider":"Carroll and Sons","latitude":18.0735299,"longitude":-15.9582372},
{"ipv4":"56.121.245.79/29","country":"Uzbekistan","city":"Bŭka","provider":"Hamill Group","latitude":40.8106238,"longitude":69.2341133},
{"ipv4":"102.162.87.0/24","country":"Indonesia","city":"Kuwumkumambal","provider":"Conn Inc","latitude":-8.4879,"longitude":115.1696},
{"ipv4":"173.85.211.35/28","country":"Guatemala","city":"Cunén","provider":"West Group","latitude":15.3376191,"longitude":-91.0268638},
{"ipv4":"62.245.10.104/30","country":"Tanzania","city":"Buseresere","provider":"Christiansen-Harris","latitude":-3.05,"longitude":31.883333},
{"ipv4":"117.44.29.8/24","country":"Argentina","city":"Los Frentones","provider":"Reilly, Sanford and Turcotte","latitude":-26.4070347,"longitude":-61.4128561},
{"ipv4":"104.214.103.197/24","country":"Indonesia","city":"Harian","provider":"Mueller-Dibbert","latitude":2.5307213,"longitude":98.5940814},
{"ipv4":"188.199.163.219/28","country":"Indonesia","city":"Campor","provider":"Runte-Steuber","latitude":-6.9812818,"longitude":112.87907},
{"ipv4":"159.154.243.14/24","country":"China","city":"Lushan","provider":"Deckow, Rowe and Hermann","latitude":29.5792603,"longitude":115.9942491},
{"ipv4":"213.159.103.230/19","country":"China","city":"Lianzhou","provider":"Reinger-Crist","latitude":24.780966,"longitude":112.377361},
{"ipv4":"62.192.62.179/24","country":"South Korea","city":"Jeju-si","provider":"Kutch, Harvey and Turcotte","latitude":33.4996213,"longitude":126.5311884},
{"ipv4":"220.56.105.105/29","country":"Russia","city":"Izborsk","provider":"Halvorson, Windler and Purdy","latitude":57.708244,"longitude":27.8608831},
{"ipv4":"92.1.174.191/24","country":"New Zealand","city":"Palmerston North","provider":"Pfeffer-Ward","latitude":-40.4057293,"longitude":175.5843632},
{"ipv4":"218.96.66.14/24","country":"France","city":"Saint-Brieuc","provider":"Yundt and Sons","latitude":48.509075,"longitude":-2.7383235},
{"ipv4":"234.183.25.222/24","country":"Palestinian Territory","city":"Bayt Līd","provider":"Monahan and Sons","latitude":32.261548,"longitude":35.13028},
{"ipv4":"109.125.163.47/24","country":"France","city":"Saint-Denis","provider":"Cremin-Lowe","latitude":48.922709,"longitude":2.3425328},
{"ipv4":"212.251.6.50/24","country":"Philippines","city":"Bolanon","provider":"Spinka LLC","latitude":10.8081816,"longitude":123.3788792},
{"ipv4":"209.91.4.132/24","country":"Russia","city":"Ryazhsk","provider":"Rohan, Boehm and Batz","latitude":53.7217952,"longitude":40.0305734},
{"ipv4":"156.165.162.164/31","country":"Japan","city":"Ōami","provider":"O'Hara-Wolf","latitude":35.5262299,"longitude":140.3233207},
{"ipv4":"194.122.110.192/28","country":"China","city":"Nanping","provider":"Turcotte, Schultz and Pfannerstill","latitude":26.641774,"longitude":118.17771},
{"ipv4":"227.228.176.61/28","country":"China","city":"Yangcun","provider":"Rosenbaum, Nolan and Jakubowski","latitude":22.170437,"longitude":111.791539},
{"ipv4":"114.216.10.232/26","country":"South Africa","city":"Marquard","provider":"Lakin, Donnelly and Johns","latitude":-28.6880903,"longitude":27.4380189},
{"ipv4":"234.235.123.150/24","country":"Portugal","city":"Balazar","provider":"Kreiger, Schoen and Stanton","latitude":41.5051316,"longitude":-8.3877778},
{"ipv4":"74.28.8.143/23","country":"Mexico","city":"Guadalupe","provider":"Murphy, Harvey and Legros","latitude":25.6765837,"longitude":-100.2602364},
{"ipv4":"40.180.235.76/28","country":"Russia","city":"Sokolovyy","provider":"Schmitt-Glover","latitude":51.567832,"longitude":45.8303591},
{"ipv4":"92.155.3.74/21","country":"Indonesia","city":"Kenarilang","provider":"Dare, Wisoky and Welch","latitude":-8.2206994,"longitude":124.5029869},
{"ipv4":"177.243.110.26/17","country":"Argentina","city":"Tres Isletas","provider":"Turner, Schmitt and Powlowski","latitude":-26.3374785,"longitude":-60.4304186},
{"ipv4":"214.51.65.184/26","country":"China","city":"Bianxiong","provider":"Goyette-Mohr","latitude":29.31718,"longitude":89.054565},
{"ipv4":"29.149.113.85/24","country":"Indonesia","city":"Mancogeh","provider":"Jakubowski-Walker","latitude":-7.3038456,"longitude":108.2185534},
{"ipv4":"253.105.56.63/29","country":"Nigeria","city":"Zaria","provider":"Cole, Rempel and McKenzie","latitude":11.0855409,"longitude":7.7199454},
{"ipv4":"253.187.37.48/24","country":"Sweden","city":"Nyköping","provider":"Kuphal-Ziemann","latitude":58.7472646,"longitude":17.0266546},
{"ipv4":"61.205.244.125/24","country":"Brazil","city":"Castanhal","provider":"King-Turner","latitude":-1.3050431,"longitude":-47.9340343},
{"ipv4":"36.115.86.56/18","country":"United States","city":"Toledo","provider":"Morissette LLC","latitude":41.64,"longitude":-83.54},
{"ipv4":"149.17.44.117/24","country":"Indonesia","city":"Citasuk","provider":"Effertz, Schmidt and VonRueden","latitude":-6.2060317,"longitude":105.9670501},
{"ipv4":"142.132.7.183/24","country":"Bangladesh","city":"Barisāl","provider":"Schroeder Group","latitude":22.7029212,"longitude":90.3465971},
{"ipv4":"147.219.211.24/28","country":"Russia","city":"Ivanishchi","provider":"Gutkowski, Abbott and Medhurst","latitude":55.7754263,"longitude":40.4248943},
{"ipv4":"172.231.227.156/31","country":"Russia","city":"Pryamitsyno","provider":"Torp, Rutherford and Ernser","latitude":51.6561,"longitude":35.9314},
{"ipv4":"220.169.172.30/31","country":"China","city":"Fubin","provider":"Bradtke-Cartwright","latitude":31.297414,"longitude":121.450653},
{"ipv4":"101.22.114.249/24","country":"Malaysia","city":"Kuala Lumpur","provider":"Strosin Group","latitude":3.1523104,"longitude":101.7178316},
{"ipv4":"169.104.22.18/21","country":"Vietnam","city":"Thành Phố Hạ Long","provider":"Jacobs-Weber","latitude":20.9711977,"longitude":107.0448069},
{"ipv4":"225.61.71.66/24","country":"Tanzania","city":"Mabamba","provider":"Harber-Ruecker","latitude":-3.597311,"longitude":30.5005605},
{"ipv4":"68.255.150.10/24","country":"Czech Republic","city":"Kovářov","provider":"Balistreri, Hermann and Schmitt","latitude":49.6489809,"longitude":17.6517329},
{"ipv4":"127.79.191.84/24","country":"Indonesia","city":"Oehaunu","provider":"Williamson LLC","latitude":-10.0569,"longitude":124.1295},
{"ipv4":"139.182.183.214/20","country":"Poland","city":"Podgórzyn","provider":"Goyette, Gutmann and Beer","latitude":50.8290137,"longitude":15.6741931},
{"ipv4":"95.12.123.191/28","country":"Iraq","city":"Kufa","provider":"Gibson-Schneider","latitude":32.047243,"longitude":44.3709408},
{"ipv4":"27.209.79.5/17","country":"Indonesia","city":"Waekolong","provider":"Frami LLC","latitude":-8.7581,"longitude":120.7293},
{"ipv4":"64.102.95.171/28","country":"Mexico","city":"El Calvario","provider":"Zieme-Graham","latitude":19.6031486,"longitude":-99.0550357},
{"ipv4":"146.152.231.4/28","country":"Indonesia","city":"Pangkalan","provider":"Donnelly and Sons","latitude":-2.688962,"longitude":111.622398},
{"ipv4":"255.97.149.55/22","country":"Philippines","city":"Dumalneg","provider":"Balistreri Inc","latitude":17.9410217,"longitude":120.5817801},
{"ipv4":"94.173.220.68/24","country":"China","city":"Chuangye","provider":"Lubowitz LLC","latitude":38.7418853,"longitude":117.5352694},
{"ipv4":"2.17.221.113/28","country":"Ukraine","city":"Lazurne","provider":"Schinner, Miller and Schmitt","latitude":46.0771644,"longitude":32.5299379},
{"ipv4":"217.7.68.187/18","country":"Senegal","city":"Joal-Fadiout","provider":"Cartwright, Sauer and Yundt","latitude":14.1811693,"longitude":-16.8502879},
{"ipv4":"6.207.79.33/24","country":"Japan","city":"Ryōtsu-minato","provider":"Pollich and Sons","latitude":38.0775948,"longitude":138.439631},
{"ipv4":"126.209.81.171/24","country":"Indonesia","city":"Kedungbang","provider":"Grady, Friesen and Gerlach","latitude":-6.543601,"longitude":111.0177251},
{"ipv4":"85.144.239.226/18","country":"Burundi","city":"Buganda","provider":"Bartell-Veum","latitude":-2.9679629,"longitude":29.2088303},